[
  {
    "business_id": 3655,
    "name": "ARBYS",
    "address": "5400 BLUE MOUND RD",
    "city": "FORT WORTH",
    "state": "TX",
    "postal_code": 76106,
    "latitude": 32.84044214,
    "longitude": -97.34282604,
    "phone_number": ""
  },
  {
    "business_id": 10438,
    "name": "ARBYS",
    "address": "3788 BOAT CLUB RD",
    "city": "FORT WORTH",
    "state": "TX",
    "postal_code": 76135,
    "latitude": 32.8088021,
    "longitude": -97.42229522,
    "phone_number": ""
  },
  {
    "business_id": 10412,
    "name": "ARBYS",
    "address": "9441 CLIFFORD ST",
    "city": "FORT WORTH",
    "state": "TX",
    "postal_code": 76108,
    "latitude": 32.76472648,
    "longitude": -97.48000994,
    "phone_number": ""
  },
  {
    "business_id": 3303,
    "name": "ARBYS",
    "address": "3832 ALTAMESA BLVD",
    "city": "FORT WORTH",
    "state": "TX",
    "postal_code": 76133,
    "latitude": 32.6507429,
    "longitude": -97.37538902,
    "phone_number": ""
  },
  {
    "business_id": 10712,
    "name": "ARBYS",
    "address": "601 ALTA MERE DR",
    "city": "FORT WORTH",
    "state": "TX",
    "postal_code": 76116,
    "latitude": 32.75190476,
    "longitude": -97.43172179,
    "phone_number": ""
  },
  {
    "business_id": 11044,
    "name": "BRAUMS ICE CREAM",
    "address": "6601 CAMP BOWIE BLVD",
    "city": "FORT WORTH",
    "state": "TX",
    "postal_code": 76116,
    "latitude": 32.72275091,
    "longitude": -97.42943537,
    "phone_number": ""
  },
  {
    "business_id": 119,
    "name": "BRAUMS ICE CREAM",
    "address": "6108 MCCART AVE",
    "city": "FORT WORTH",
    "state": "TX",
    "postal_code": 76133,
    "latitude": 32.65679195,
    "longitude": -97.36048841,
    "phone_number": ""
  },
  {
    "business_id": 3627,
    "name": "BRAUMS ICE CREAM",
    "address": "6450 NORTH FREEWAY",
    "city": "FORT WORTH",
    "state": "TX",
    "postal_code": 76137,
    "latitude": 32.85810463,
    "longitude": -97.313623,
    "phone_number": ""
  },
  {
    "business_id": 3697,
    "name": "BRAUMS ICE CREAM",
    "address": "7212 HULEN ST",
    "city": "FORT WORTH",
    "state": "TX",
    "postal_code": 76133,
    "latitude": 32.64252843,
    "longitude": -97.39605105,
    "phone_number": ""
  },
  {
    "business_id": 4006,
    "name": "BRAUMS ICE CREAM",
    "address": "2509 8TH AVE",
    "city": "FORT WORTH",
    "state": "TX",
    "postal_code": 76110,
    "latitude": 32.71536808,
    "longitude": -97.34373922,
    "phone_number": ""
  },
  {
    "business_id": 4219,
    "name": "BRAUMS ICE CREAM",
    "address": "100 UNIVERSITY DR",
    "city": "FORT WORTH",
    "state": "TX",
    "postal_code": 76107,
    "latitude": 32.75912074,
    "longitude": -97.36123524,
    "phone_number": ""
  },
  {
    "business_id": 6765,
    "name": "BRAUMS ICE CREAM",
    "address": "6770 BRIDGE ST",
    "city": "FORT WORTH",
    "state": "TX",
    "postal_code": 76112,
    "latitude": 32.76622941,
    "longitude": -97.21404309,
    "phone_number": ""
  },
  {
    "business_id": 10624,
    "name": "BURGER KING",
    "address": "5721 HULEN ST",
    "city": "FORT WORTH",
    "state": "TX",
    "postal_code": 76132,
    "latitude": 32.66598031,
    "longitude": -97.40117322,
    "phone_number": ""
  },
  {
    "business_id": 7547,
    "name": "BURGER KING",
    "address": "1670 EASTCHASE PKWY",
    "city": "FORT WORTH",
    "state": "TX",
    "postal_code": 76120,
    "latitude": 32.75507254,
    "longitude": -97.16974355,
    "phone_number": ""
  },
  {
    "business_id": 12566,
    "name": "BURGER KING",
    "address": "730 SEMINARY DR",
    "city": "FORT WORTH",
    "state": "TX",
    "postal_code": 76115,
    "latitude": 32.68501254,
    "longitude": -97.3323097,
    "phone_number": ""
  },
  {
    "business_id": 12642,
    "name": "CHICK-FIL-A",
    "address": "2401 TARRANT PKWY",
    "city": "FORT WORTH",
    "state": "TX",
    "postal_code": 76177,
    "latitude": 32.89862823,
    "longitude": -97.32414935,
    "phone_number": ""
  },
  {
    "business_id": 11361,
    "name": "CHICK-FIL-A",
    "address": "3580 ALTAMESA BLVD",
    "city": "FORT WORTH",
    "state": "TX",
    "postal_code": 76133,
    "latitude": 32.65018127,
    "longitude": -97.36951791,
    "phone_number": ""
  },
  {
    "business_id": 11254,
    "name": "CHICK-FIL-A",
    "address": "549 CARROLL ST",
    "city": "FORT WORTH",
    "state": "TX",
    "postal_code": 76107,
    "latitude": 32.75338296,
    "longitude": -97.35462143,
    "phone_number": ""
  },
  {
    "business_id": 8673,
    "name": "CHICK-FIL-A",
    "address": "4913 BRYANT IRVIN RD",
    "city": "FORT WORTH",
    "state": "TX",
    "postal_code": 76132,
    "latitude": 32.67814828,
    "longitude": -97.4156191,
    "phone_number": ""
  },
  {
    "business_id": 9221,
    "name": "CHICK-FIL-A",
    "address": "4601 DONNELLY AVE",
    "city": "FORT WORTH",
    "state": "TX",
    "postal_code": 76107,
    "latitude": 32.72904224,
    "longitude": -97.38791413,
    "phone_number": ""
  },
  {
    "business_id": 9309,
    "name": "CHICKEN EXPRESS",
    "address": "7335 BOAT CLUB RD",
    "city": "FORT WORTH",
    "state": "TX",
    "postal_code": 76179,
    "latitude": 32.86980291,
    "longitude": -97.42611425,
    "phone_number": ""
  },
  {
    "business_id": 9836,
    "name": "CHICKEN EXPRESS",
    "address": "8551 MEADOWBROOK DR",
    "city": "FORT WORTH",
    "state": "TX",
    "postal_code": 76120,
    "latitude": 32.75372959,
    "longitude": -97.16603584,
    "phone_number": ""
  },
  {
    "business_id": 8238,
    "name": "CHICKEN EXPRESS",
    "address": "4791 LOOP 820",
    "city": "FORT WORTH",
    "state": "TX",
    "postal_code": 76132,
    "latitude": 32.68145073,
    "longitude": -97.40289935,
    "phone_number": ""
  },
  {
    "business_id": 5548,
    "name": "CHICKEN EXPRESS",
    "address": "114 SYCAMORE SCHOOL RD",
    "city": "FORT WORTH",
    "state": "TX",
    "postal_code": 76134,
    "latitude": 32.63521064,
    "longitude": -97.32211343,
    "phone_number": ""
  },
  {
    "business_id": 6158,
    "name": "CHICKEN EXPRESS",
    "address": "2301 BERRY ST",
    "city": "FORT WORTH",
    "state": "TX",
    "postal_code": 76110,
    "latitude": 32.7059827,
    "longitude": -97.35131926,
    "phone_number": ""
  },
  {
    "business_id": 10745,
    "name": "CHICKEN EXPRESS",
    "address": "8657 BEACH ST",
    "city": "FORT WORTH",
    "state": "TX",
    "postal_code": 76244,
    "latitude": 32.89756881,
    "longitude": -97.2898268,
    "phone_number": ""
  },
  {
    "business_id": 12571,
    "name": "CHICKEN EXPRESS",
    "address": "124 MCPHERSON BLVD",
    "city": "FORT WORTH",
    "state": "TX",
    "postal_code": 76140,
    "latitude": 32.59919598,
    "longitude": -97.3207716,
    "phone_number": ""
  },
  {
    "business_id": 12762,
    "name": "CHICKEN EXPRESS",
    "address": "1131 BRIDGEWOOD DR",
    "city": "FORT WORTH",
    "state": "TX",
    "postal_code": 76112,
    "latitude": 32.76452079,
    "longitude": -97.21740262,
    "phone_number": ""
  },
  {
    "business_id": 12538,
    "name": "CHICKEN EXPRESS",
    "address": "3100 BASSWOOD BLVD",
    "city": "FORT WORTH",
    "state": "TX",
    "postal_code": 76137,
    "latitude": 32.87261699,
    "longitude": -97.31222456,
    "phone_number": ""
  },
  {
    "business_id": 7448,
    "name": "CHILIS GRILL & BAR",
    "address": "13311 SOUTH FREEWAY",
    "city": "FORT WORTH",
    "state": "TX",
    "postal_code": 76028,
    "latitude": 32.56937145,
    "longitude": -97.31871101,
    "phone_number": ""
  },
  {
    "business_id": 12091,
    "name": "CHILIS GRILL & BAR",
    "address": "9201 SAGE MEADOW TRL",
    "city": "FORT WORTH",
    "state": "TX",
    "postal_code": 76177,
    "latitude": 32.90532633,
    "longitude": -97.3145721,
    "phone_number": ""
  },
  {
    "business_id": 10398,
    "name": "CHILIS GRILL & BAR",
    "address": "300 CLIFFORD CENTER DR",
    "city": "FORT WORTH",
    "state": "TX",
    "postal_code": 76108,
    "latitude": 32.76406386,
    "longitude": -97.47897824,
    "phone_number": ""
  },
  {
    "business_id": 2412,
    "name": "CHILIS GRILL & BAR",
    "address": "5288 HULEN ST",
    "city": "FORT WORTH",
    "state": "TX",
    "postal_code": 76132,
    "latitude": 32.67245095,
    "longitude": -97.39995409,
    "phone_number": ""
  },
  {
    "business_id": 10081,
    "name": "CHINA EXPRESS",
    "address": "2725 8TH AVE",
    "city": "FORT WORTH",
    "state": "TX",
    "postal_code": 76110,
    "latitude": 32.71251824,
    "longitude": -97.34376447,
    "phone_number": ""
  },
  {
    "business_id": 8014,
    "name": "CHINA EXPRESS",
    "address": "5512 LANCASTER AVE",
    "city": "FORT WORTH",
    "state": "TX",
    "postal_code": 76112,
    "latitude": 32.7386115,
    "longitude": -97.23639784,
    "phone_number": ""
  },
  {
    "business_id": 10951,
    "name": "CHINA EXPRESS",
    "address": "3529 HERITAGE TRACE PKWY",
    "city": "FORT WORTH",
    "state": "TX",
    "postal_code": 76248,
    "latitude": 32.913802,
    "longitude": -97.30629181,
    "phone_number": ""
  },
  {
    "business_id": 12025,
    "name": "CHINA EXPRESS",
    "address": "2406 AZLE AVE",
    "city": "FORT WORTH",
    "state": "TX",
    "postal_code": 76106,
    "latitude": 32.79388005,
    "longitude": -97.37322151,
    "phone_number": ""
  },
  {
    "business_id": 8292,
    "name": "CHIPOTLE MEXICAN GRILL",
    "address": "3050 HULEN ST",
    "city": "FORT WORTH",
    "state": "TX",
    "postal_code": 76109,
    "latitude": 32.73044061,
    "longitude": -97.38788581,
    "phone_number": ""
  },
  {
    "business_id": 11493,
    "name": "CHIPOTLE MEXICAN GRILL",
    "address": "6370 CAMP BOWIE BLVD",
    "city": "FORT WORTH",
    "state": "TX",
    "postal_code": 76116,
    "latitude": 32.72648009,
    "longitude": -97.42122052,
    "phone_number": ""
  },
  {
    "business_id": 10217,
    "name": "CHIPOTLE MEXICAN GRILL",
    "address": "3000 7TH ST",
    "city": "FORT WORTH",
    "state": "TX",
    "postal_code": 76107,
    "latitude": 32.75121647,
    "longitude": -97.3602321,
    "phone_number": ""
  },
  {
    "business_id": 12424,
    "name": "CHIPOTLE MEXICAN GRILL",
    "address": "2901 HERITAGE TRACE PKWY",
    "city": "FORT WORTH",
    "state": "TX",
    "postal_code": 76177,
    "latitude": 32.91471667,
    "longitude": -97.31413985,
    "phone_number": ""
  },
  {
    "business_id": 12589,
    "name": "CHIPOTLE MEXICAN GRILL",
    "address": "1519 ROSEDALE ST",
    "city": "FORT WORTH",
    "state": "TX",
    "postal_code": 76104,
    "latitude": 32.73296371,
    "longitude": -97.3423348,
    "phone_number": ""
  },
  {
    "business_id": 9890,
    "name": "CHIPOTLE MEXICAN GRILL",
    "address": "4484 BRYANT IRVIN RD",
    "city": "FORT WORTH",
    "state": "TX",
    "postal_code": 76132,
    "latitude": 32.68595313,
    "longitude": -97.41401608,
    "phone_number": ""
  },
  {
    "business_id": 9482,
    "name": "CICIS PIZZA",
    "address": "9324 CLIFFORD ST",
    "city": "FORT WORTH",
    "state": "TX",
    "postal_code": 76108,
    "latitude": 32.76589725,
    "longitude": -97.47792908,
    "phone_number": ""
  },
  {
    "business_id": 9534,
    "name": "CICIS PIZZA",
    "address": "950 BEACH ST",
    "city": "FORT WORTH",
    "state": "TX",
    "postal_code": 76111,
    "latitude": 32.75531214,
    "longitude": -97.28898855,
    "phone_number": ""
  },
  {
    "business_id": 5529,
    "name": "CICIS PIZZA",
    "address": "6550 CAMP BOWIE BLVD",
    "city": "FORT WORTH",
    "state": "TX",
    "postal_code": 76116,
    "latitude": 32.72325542,
    "longitude": -97.42890019,
    "phone_number": ""
  },
  {
    "business_id": 11540,
    "name": "CICIS PIZZA",
    "address": "1408 EASTCHASE PKWY",
    "city": "FORT WORTH",
    "state": "TX",
    "postal_code": 76120,
    "latitude": 32.75933282,
    "longitude": -97.16725004,
    "phone_number": ""
  },
  {
    "business_id": 12510,
    "name": "CICIS PIZZA",
    "address": "5503 HULEN",
    "city": "FORT WORTH",
    "state": "TX",
    "postal_code": 76132,
    "latitude": 32.66948772,
    "longitude": -97.39980072,
    "phone_number": ""
  },
  {
    "business_id": 12432,
    "name": "CICIS PIZZA",
    "address": "5701 TARRANT PKWY",
    "city": "FORT WORTH",
    "state": "TX",
    "postal_code": 76244,
    "latitude": 32.89511703,
    "longitude": -97.26379469,
    "phone_number": ""
  },
  {
    "business_id": 5209,
    "name": "CICIS PIZZA",
    "address": "3401 ALTAMESA BLVD",
    "city": "FORT WORTH",
    "state": "TX",
    "postal_code": 76133,
    "latitude": 32.64943132,
    "longitude": -97.36610592,
    "phone_number": ""
  },
  {
    "business_id": 9760,
    "name": "CICIS PIZZA",
    "address": "2724 8TH AVE",
    "city": "FORT WORTH",
    "state": "TX",
    "postal_code": 76110,
    "latitude": 32.71251957,
    "longitude": -97.34389452,
    "phone_number": ""
  },
  {
    "business_id": 12228,
    "name": "DOMINOS PIZZA",
    "address": "12412 TIMBERLAND BLVD",
    "city": "FORT WORTH",
    "state": "TX",
    "postal_code": 76244,
    "latitude": 32.95308781,
    "longitude": -97.2833842,
    "phone_number": ""
  },
  {
    "business_id": 12319,
    "name": "DOMINOS PIZZA",
    "address": "2484 AVONDALE HASLET RD",
    "city": "FORT WORTH",
    "state": "TX",
    "postal_code": 76052,
    "latitude": 32.9679467,
    "longitude": -97.41628705,
    "phone_number": ""
  },
  {
    "business_id": 9512,
    "name": "DOMINOS PIZZA",
    "address": "7630 BEACH ST",
    "city": "FORT WORTH",
    "state": "TX",
    "postal_code": 76137,
    "latitude": 32.87789586,
    "longitude": -97.28954926,
    "phone_number": ""
  },
  {
    "business_id": 10082,
    "name": "DOMINOS PIZZA",
    "address": "7638 MCCART AVE",
    "city": "FORT WORTH",
    "state": "TX",
    "postal_code": 76123,
    "latitude": 32.63166796,
    "longitude": -97.37001518,
    "phone_number": ""
  },
  {
    "business_id": 7765,
    "name": "DOMINOS PIZZA",
    "address": "4201 BERRY ST",
    "city": "FORT WORTH",
    "state": "TX",
    "postal_code": 76105,
    "latitude": 32.70130064,
    "longitude": -97.23322064,
    "phone_number": ""
  },
  {
    "business_id": 7608,
    "name": "DOMINOS PIZZA",
    "address": "2801 BERRY ST",
    "city": "FORT WORTH",
    "state": "TX",
    "postal_code": 76109,
    "latitude": 32.71791756,
    "longitude": -97.23352981,
    "phone_number": ""
  },
  {
    "business_id": 10060,
    "name": "DOMINOS PIZZA",
    "address": "4620 CAMP BOWIE BLVD",
    "city": "FORT WORTH",
    "state": "TX",
    "postal_code": 76107,
    "latitude": 32.74031558,
    "longitude": -97.38809443,
    "phone_number": ""
  },
  {
    "business_id": 1290,
    "name": "DOMINOS PIZZA",
    "address": "5400 WOODWAY DR",
    "city": "FORT WORTH",
    "state": "TX",
    "postal_code": 76133,
    "latitude": 32.66957379,
    "longitude": -97.37683469,
    "phone_number": ""
  },
  {
    "business_id": 8603,
    "name": "DOMINOS PIZZA",
    "address": "8808 CAMP BOWIE WEST BLVD",
    "city": "FORT WORTH",
    "state": "TX",
    "postal_code": 76116,
    "latitude": 32.72454542,
    "longitude": -97.46969532,
    "phone_number": ""
  },
  {
    "business_id": 5588,
    "name": "DOMINOS PIZZA",
    "address": "6612 BRENTWOOD STAIR RD",
    "city": "FORT WORTH",
    "state": "TX",
    "postal_code": 76112,
    "latitude": 32.75429963,
    "longitude": -97.21574464,
    "phone_number": ""
  },
  {
    "business_id": 6914,
    "name": "DOMINOS PIZZA",
    "address": "2680 MAIN ST",
    "city": "FORT WORTH",
    "state": "TX",
    "postal_code": 76106,
    "latitude": 32.7931491,
    "longitude": -97.34906713,
    "phone_number": ""
  },
  {
    "business_id": 1715,
    "name": "DOMINOS PIZZA",
    "address": "3810 BELKNAP ST",
    "city": "FORT WORTH",
    "state": "TX",
    "postal_code": 76111,
    "latitude": 32.77961094,
    "longitude": -97.29248376,
    "phone_number": ""
  },
  {
    "business_id": 6756,
    "name": "DOMINOS PIZZA",
    "address": "900 HENDERSON ST",
    "city": "FORT WORTH",
    "state": "TX",
    "postal_code": 76102,
    "latitude": 32.7499485,
    "longitude": -97.33745838,
    "phone_number": ""
  },
  {
    "business_id": 12873,
    "name": "DOMINOS PIZZA",
    "address": "2201 TARRANT PKWY",
    "city": "FORT WORTH",
    "state": "TX",
    "postal_code": 76117,
    "latitude": 32.89861012,
    "longitude": -97.32722708,
    "phone_number": ""
  },
  {
    "business_id": 10861,
    "name": "FIREHOUSE SUBS",
    "address": "2901 WESTERN CENTER BLVD",
    "city": "FORT WORTH",
    "state": "TX",
    "postal_code": 76131,
    "latitude": 32.86128364,
    "longitude": -97.31834902,
    "phone_number": ""
  },
  {
    "business_id": 11833,
    "name": "FIREHOUSE SUBS",
    "address": "9180 NORTH FREEWAY FWY",
    "city": "FORT WORTH",
    "state": "TX",
    "postal_code": 76177,
    "latitude": "",
    "longitude": "",
    "phone_number": ""
  },
  {
    "business_id": 12045,
    "name": "FIREHOUSE SUBS",
    "address": "1600 ROSEDALE ST",
    "city": "FORT WORTH",
    "state": "TX",
    "postal_code": 76104,
    "latitude": 32.73324372,
    "longitude": -97.34380046,
    "phone_number": ""
  },
  {
    "business_id": 12455,
    "name": "FIREHOUSE SUBS",
    "address": "4845 BRYANT IRVIN RD",
    "city": "FORT WORTH",
    "state": "TX",
    "postal_code": 76132,
    "latitude": 32.67884556,
    "longitude": -97.4150905,
    "phone_number": ""
  },
  {
    "business_id": 12549,
    "name": "FIREHOUSE SUBS",
    "address": "501 ALTA MERE DR",
    "city": "FORT WORTH",
    "state": "TX",
    "postal_code": 76116,
    "latitude": 32.75303588,
    "longitude": -97.43053484,
    "phone_number": ""
  },
  {
    "business_id": 10845,
    "name": "FIREHOUSE SUBS",
    "address": "12650 SOUTH FREEWAY",
    "city": "FORT WORTH",
    "state": "TX",
    "postal_code": 76028,
    "latitude": 32.57466843,
    "longitude": -97.31954585,
    "phone_number": ""
  },
  {
    "business_id": 4039,
    "name": "IHOP",
    "address": "3700 ALTAMESA BLVD",
    "city": "FORT WORTH",
    "state": "TX",
    "postal_code": 76133,
    "latitude": 32.65048369,
    "longitude": -97.3726712,
    "phone_number": ""
  },
  {
    "business_id": 4822,
    "name": "IHOP",
    "address": "8640 EAST FREEWAY",
    "city": "FORT WORTH",
    "state": "TX",
    "postal_code": 76120,
    "latitude": 32.75994712,
    "longitude": -97.16803175,
    "phone_number": ""
  },
  {
    "business_id": 6517,
    "name": "IHOP",
    "address": "5920 QUEBEC ST",
    "city": "FORT WORTH",
    "state": "TX",
    "postal_code": 76135,
    "latitude": 32.80496981,
    "longitude": -97.4266946,
    "phone_number": ""
  },
  {
    "business_id": 6832,
    "name": "IHOP",
    "address": "5901 LOOP 820",
    "city": "FORT WORTH",
    "state": "TX",
    "postal_code": 76132,
    "latitude": 32.68262466,
    "longitude": -97.41338842,
    "phone_number": ""
  },
  {
    "business_id": 8795,
    "name": "IHOP",
    "address": "1664 UNIVERSITY DR",
    "city": "FORT WORTH",
    "state": "TX",
    "postal_code": 76107,
    "latitude": 32.74336665,
    "longitude": -97.36156934,
    "phone_number": ""
  },
  {
    "business_id": 10123,
    "name": "IHOP",
    "address": "12750 NORTH FREEWAY",
    "city": "FORT WORTH",
    "state": "TX",
    "postal_code": 76177,
    "latitude": 32.9572582,
    "longitude": -97.3103238,
    "phone_number": ""
  },
  {
    "business_id": 11575,
    "name": "IN N OUT BURGER",
    "address": "5916 QUEBEC ST",
    "city": "FORT WORTH",
    "state": "TX",
    "postal_code": 76135,
    "latitude": 32.80491465,
    "longitude": -97.42665701,
    "phone_number": ""
  },
  {
    "business_id": 11352,
    "name": "IN N OUT BURGER",
    "address": "2900 7TH ST",
    "city": "FORT WORTH",
    "state": "TX",
    "postal_code": 76107,
    "latitude": 32.75119463,
    "longitude": -97.35842045,
    "phone_number": ""
  },
  {
    "business_id": 11665,
    "name": "IN N OUT BURGER",
    "address": "4620 HULEN ST",
    "city": "FORT WORTH",
    "state": "TX",
    "postal_code": 76132,
    "latitude": 32.68006548,
    "longitude": -97.39378771,
    "phone_number": ""
  },
  {
    "business_id": 12231,
    "name": "IN N OUT BURGER",
    "address": "2501 TARRANT PKWY",
    "city": "FORT WORTH",
    "state": "TX",
    "postal_code": 76177,
    "latitude": 32.89862341,
    "longitude": -97.32297831,
    "phone_number": ""
  },
  {
    "business_id": 8885,
    "name": "JACK IN THE BOX",
    "address": "14100 TRINITY BLVD",
    "city": "FORT WORTH",
    "state": "TX",
    "postal_code": 76155,
    "latitude": 32.82223699,
    "longitude": -97.06066533,
    "phone_number": ""
  },
  {
    "business_id": 10796,
    "name": "JACK IN THE BOX",
    "address": "8513 HULEN ST",
    "city": "FORT WORTH",
    "state": "TX",
    "postal_code": 76123,
    "latitude": 32.61871203,
    "longitude": -97.38828581,
    "phone_number": ""
  },
  {
    "business_id": 1000,
    "name": "JACK IN THE BOX",
    "address": "804 SEMINARY DR",
    "city": "FORT WORTH",
    "state": "TX",
    "postal_code": 76115,
    "latitude": 32.68497914,
    "longitude": -97.33357499,
    "phone_number": ""
  },
  {
    "business_id": 3254,
    "name": "JACK IN THE BOX",
    "address": "3459 ALTAMESA BLVD",
    "city": "FORT WORTH",
    "state": "TX",
    "postal_code": 76133,
    "latitude": 32.64950429,
    "longitude": -97.36687488,
    "phone_number": ""
  },
  {
    "business_id": 6100,
    "name": "JACK IN THE BOX",
    "address": "7065 RIDGMAR MEADOW RD",
    "city": "FORT WORTH",
    "state": "TX",
    "postal_code": 76116,
    "latitude": 32.74549919,
    "longitude": -97.43784251,
    "phone_number": ""
  },
  {
    "business_id": 4209,
    "name": "JACK IN THE BOX",
    "address": "4610 HULEN ST",
    "city": "FORT WORTH",
    "state": "TX",
    "postal_code": 76132,
    "latitude": 32.68018914,
    "longitude": -97.39370621,
    "phone_number": ""
  },
  {
    "business_id": 6955,
    "name": "JACK IN THE BOX",
    "address": "5301 BEACH ST",
    "city": "FORT WORTH",
    "state": "TX",
    "postal_code": 76137,
    "latitude": 32.83965214,
    "longitude": -97.29055538,
    "phone_number": ""
  },
  {
    "business_id": 8386,
    "name": "JACK IN THE BOX",
    "address": "200 LOOP 820 S",
    "city": "FORT WORTH",
    "state": "TX",
    "postal_code": 76108,
    "latitude": 32.75948455,
    "longitude": -97.47829972,
    "phone_number": ""
  },
  {
    "business_id": 7840,
    "name": "JACK IN THE BOX",
    "address": "7960 SOUTH FREEWAY",
    "city": "FORT WORTH",
    "state": "TX",
    "postal_code": 76134,
    "latitude": 32.6344973,
    "longitude": -97.32171037,
    "phone_number": ""
  },
  {
    "business_id": 8756,
    "name": "JACK IN THE BOX",
    "address": "8651 ANDERSON BLVD",
    "city": "FORT WORTH",
    "state": "TX",
    "postal_code": 76120,
    "latitude": 32.76252896,
    "longitude": -97.16796493,
    "phone_number": ""
  },
  {
    "business_id": 8848,
    "name": "JACK IN THE BOX",
    "address": "1500 UNIVERSITY DR",
    "city": "FORT WORTH",
    "state": "TX",
    "postal_code": 76107,
    "latitude": 32.74474884,
    "longitude": -97.36162358,
    "phone_number": ""
  },
  {
    "business_id": 10012,
    "name": "JACK IN THE BOX",
    "address": "3008 BASSWOOD BLVD",
    "city": "FORT WORTH",
    "state": "TX",
    "postal_code": 76137,
    "latitude": 32.87262388,
    "longitude": -97.31526453,
    "phone_number": ""
  },
  {
    "business_id": 11292,
    "name": "JACK IN THE BOX",
    "address": "1001 SOUTH FREEWAY",
    "city": "FORT WORTH",
    "state": "TX",
    "postal_code": 76104,
    "latitude": 32.73396661,
    "longitude": -97.32031629,
    "phone_number": ""
  },
  {
    "business_id": 10991,
    "name": "JACK IN THE BOX",
    "address": "7351 OAKMONT BLVD",
    "city": "FORT WORTH",
    "state": "TX",
    "postal_code": 76132,
    "latitude": 32.66180095,
    "longitude": -97.41998489,
    "phone_number": ""
  },
  {
    "business_id": 11897,
    "name": "JACK IN THE BOX",
    "address": "2916 BERRY",
    "city": "FORT WORTH",
    "state": "TX",
    "postal_code": 76105,
    "latitude": 32.71695142,
    "longitude": -97.23317506,
    "phone_number": ""
  },
  {
    "business_id": 12698,
    "name": "JACK IN THE BOX",
    "address": "2220 JACKSBORO HWY",
    "city": "FORT WORTH",
    "state": "TX",
    "postal_code": 76114,
    "latitude": 32.78342243,
    "longitude": -97.37821728,
    "phone_number": ""
  },
  {
    "business_id": 5341,
    "name": "JACK IN THE BOX",
    "address": "3209 BELKNAP ST",
    "city": "FORT WORTH",
    "state": "TX",
    "postal_code": 76111,
    "latitude": 32.77324568,
    "longitude": -97.30159357,
    "phone_number": ""
  },
  {
    "business_id": 277,
    "name": "JACK IN THE BOX",
    "address": "515 HENDERSON ST",
    "city": "FORT WORTH",
    "state": "TX",
    "postal_code": 76104,
    "latitude": 32.75203092,
    "longitude": -97.3374082,
    "phone_number": ""
  },
  {
    "business_id": 4972,
    "name": "JACK IN THE BOX",
    "address": "2105 SEMINARY DR",
    "city": "FORT WORTH",
    "state": "TX",
    "postal_code": 76115,
    "latitude": 32.68450593,
    "longitude": -97.3507592,
    "phone_number": ""
  },
  {
    "business_id": 11121,
    "name": "JACK IN THE BOX",
    "address": "2851 BERRY ST",
    "city": "FORT WORTH",
    "state": "TX",
    "postal_code": 76109,
    "latitude": 32.71751905,
    "longitude": -97.2334182,
    "phone_number": ""
  },
  {
    "business_id": 4931,
    "name": "JACK IN THE BOX",
    "address": "5031 LANCASTER AVE",
    "city": "FORT WORTH",
    "state": "TX",
    "postal_code": 76103,
    "latitude": 32.74106912,
    "longitude": -97.24604194,
    "phone_number": ""
  },
  {
    "business_id": 6000,
    "name": "JACK IN THE BOX",
    "address": "5930 CAMP BOWIE BLVD",
    "city": "FORT WORTH",
    "state": "TX",
    "postal_code": 76107,
    "latitude": 32.73013212,
    "longitude": -97.41245243,
    "phone_number": ""
  },
  {
    "business_id": 6897,
    "name": "JACK IN THE BOX",
    "address": "217 UNIVERSITY DR",
    "city": "FORT WORTH",
    "state": "TX",
    "postal_code": 76107,
    "latitude": 32.75760467,
    "longitude": -97.3610974,
    "phone_number": ""
  },
  {
    "business_id": 1835,
    "name": "JACK IN THE BOX",
    "address": "2802 MAIN ST",
    "city": "FORT WORTH",
    "state": "TX",
    "postal_code": 76106,
    "latitude": 32.79536025,
    "longitude": -97.34906994,
    "phone_number": ""
  },
  {
    "business_id": 11836,
    "name": "JIMMY JOHNS",
    "address": "150 THROCKMORTON ST",
    "city": "FORT WORTH",
    "state": "TX",
    "postal_code": 76102,
    "latitude": 32.75599579,
    "longitude": -97.33434595,
    "phone_number": ""
  },
  {
    "business_id": 10464,
    "name": "JIMMY JOHNS",
    "address": "3020 7TH ST",
    "city": "FORT WORTH",
    "state": "TX",
    "postal_code": 76107,
    "latitude": 32.75122409,
    "longitude": -97.36045872,
    "phone_number": ""
  },
  {
    "business_id": 10576,
    "name": "JIMMY JOHNS",
    "address": "4120 HWY 360",
    "city": "FORT WORTH",
    "state": "TX",
    "postal_code": 76155,
    "latitude": 32.82284595,
    "longitude": -97.06098159,
    "phone_number": ""
  },
  {
    "business_id": 11161,
    "name": "JIMMY JOHNS",
    "address": "3021 UNIVERSITY DR",
    "city": "FORT WORTH",
    "state": "TX",
    "postal_code": 76109,
    "latitude": 32.70746058,
    "longitude": -97.3603491,
    "phone_number": ""
  },
  {
    "business_id": 12426,
    "name": "JIMMY JOHNS",
    "address": "5701 TARRANT PKWY",
    "city": "FORT WORTH",
    "state": "TX",
    "postal_code": 76244,
    "latitude": 32.89511703,
    "longitude": -97.26379469,
    "phone_number": ""
  },
  {
    "business_id": 12671,
    "name": "JIMMY JOHNS",
    "address": "2317 TARRANT PKWY",
    "city": "FORT WORTH",
    "state": "TX",
    "postal_code": 76177,
    "latitude": 32.89863227,
    "longitude": -97.32513302,
    "phone_number": ""
  },
  {
    "business_id": 11270,
    "name": "JIMMY JOHNS",
    "address": "3201 WESTERN CENTER BLVD",
    "city": "FORT WORTH",
    "state": "TX",
    "postal_code": 76137,
    "latitude": 32.86094002,
    "longitude": -97.31254703,
    "phone_number": ""
  },
  {
    "business_id": 11569,
    "name": "JIMMY JOHNS",
    "address": "6370 CAMP BOWIE BLVD",
    "city": "FORT WORTH",
    "state": "TX",
    "postal_code": 76116,
    "latitude": 32.72648009,
    "longitude": -97.42122052,
    "phone_number": ""
  },
  {
    "business_id": 11917,
    "name": "JIMMY JOHNS",
    "address": "7968 SOUTH FREEWAY",
    "city": "FORT WORTH",
    "state": "TX",
    "postal_code": 76134,
    "latitude": 32.63442329,
    "longitude": -97.32171104,
    "phone_number": ""
  },
  {
    "business_id": 12402,
    "name": "JIMMY JOHNS",
    "address": "1000 8TH AVE",
    "city": "FORT WORTH",
    "state": "TX",
    "postal_code": 76104,
    "latitude": 32.73404911,
    "longitude": -97.34380357,
    "phone_number": ""
  },
  {
    "business_id": 11342,
    "name": "JIMMY JOHNS",
    "address": "4813 BRYANT IRVIN RD",
    "city": "FORT WORTH",
    "state": "TX",
    "postal_code": 76132,
    "latitude": 32.6791797,
    "longitude": -97.41484857,
    "phone_number": ""
  },
  {
    "business_id": 11138,
    "name": "LITTLE CAESARS",
    "address": "3305 MAIN ST",
    "city": "FORT WORTH",
    "state": "TX",
    "postal_code": 76106,
    "latitude": 32.80507517,
    "longitude": -97.35158423,
    "phone_number": ""
  },
  {
    "business_id": 11078,
    "name": "LITTLE CAESARS",
    "address": "9521 WHITE SETTLEMENT RD",
    "city": "FORT WORTH",
    "state": "TX",
    "postal_code": 76108,
    "latitude": 32.76134186,
    "longitude": -97.4825718,
    "phone_number": ""
  },
  {
    "business_id": 10789,
    "name": "LITTLE CAESARS",
    "address": "12477 TIMBERLAND BLVD",
    "city": "FORT WORTH",
    "state": "TX",
    "postal_code": 76244,
    "latitude": 32.9540186,
    "longitude": -97.28177997,
    "phone_number": ""
  },
  {
    "business_id": 10432,
    "name": "LITTLE CAESARS",
    "address": "5159 WICHITA ST",
    "city": "FORT WORTH",
    "state": "TX",
    "postal_code": 76119,
    "latitude": 32.6847432,
    "longitude": -97.28029215,
    "phone_number": ""
  },
  {
    "business_id": 10595,
    "name": "LITTLE CAESARS",
    "address": "8653 BEACH ST",
    "city": "FORT WORTH",
    "state": "TX",
    "postal_code": 76248,
    "latitude": 32.8974858,
    "longitude": -97.28982647,
    "phone_number": ""
  },
  {
    "business_id": 11202,
    "name": "LITTLE CAESARS",
    "address": "2977 PRECINCT LINE RD",
    "city": "FORT WORTH",
    "state": "TX",
    "postal_code": 76118,
    "latitude": 32.8017954,
    "longitude": -97.18310662,
    "phone_number": ""
  },
  {
    "business_id": 9325,
    "name": "LITTLE CAESARS",
    "address": "4729 RIVER OAKS BLVD",
    "city": "FORT WORTH",
    "state": "TX",
    "postal_code": 76114,
    "latitude": 32.78067478,
    "longitude": -97.39014922,
    "phone_number": ""
  },
  {
    "business_id": 9204,
    "name": "LITTLE CAESARS",
    "address": "3107 GREENE AVE",
    "city": "FORT WORTH",
    "state": "TX",
    "postal_code": 76109,
    "latitude": 32.70596532,
    "longitude": -97.35824934,
    "phone_number": ""
  },
  {
    "business_id": 10039,
    "name": "LITTLE CAESARS",
    "address": "3869 MAURICE AVE",
    "city": "FORT WORTH",
    "state": "TX",
    "postal_code": 76111,
    "latitude": 32.77581581,
    "longitude": -97.29072921,
    "phone_number": ""
  },
  {
    "business_id": 11823,
    "name": "LITTLE CAESARS",
    "address": "9076 CAMP BOWIE WEST BLVD",
    "city": "FORT WORTH",
    "state": "TX",
    "postal_code": 76116,
    "latitude": 32.72462487,
    "longitude": -97.47562007,
    "phone_number": ""
  },
  {
    "business_id": 10502,
    "name": "LITTLE CAESARS",
    "address": "8615 HULEN ST",
    "city": "FORT WORTH",
    "state": "TX",
    "postal_code": 76123,
    "latitude": 32.61656543,
    "longitude": -97.38828365,
    "phone_number": ""
  },
  {
    "business_id": 12013,
    "name": "LITTLE CAESARS",
    "address": "4125 LANCASTER AVE",
    "city": "FORT WORTH",
    "state": "TX",
    "postal_code": 76103,
    "latitude": 32.74102332,
    "longitude": -97.2631006,
    "phone_number": ""
  },
  {
    "business_id": 11394,
    "name": "LITTLE CAESARS",
    "address": "6432 MEADOWBROOK DR",
    "city": "FORT WORTH",
    "state": "TX",
    "postal_code": 76112,
    "latitude": 32.7460209,
    "longitude": -97.21987894,
    "phone_number": ""
  },
  {
    "business_id": 6294,
    "name": "LITTLE CAESARS",
    "address": "6248 MCCART AVE",
    "city": "FORT WORTH",
    "state": "TX",
    "postal_code": 76133,
    "latitude": 32.65320237,
    "longitude": -97.36424077,
    "phone_number": ""
  },
  {
    "business_id": 12186,
    "name": "LITTLE CAESARS",
    "address": "309 NORTHSIDE DR",
    "city": "FORT WORTH",
    "state": "TX",
    "postal_code": 76164,
    "latitude": 32.77569373,
    "longitude": -97.34672799,
    "phone_number": ""
  },
  {
    "business_id": 10550,
    "name": "MCDONALDS",
    "address": "2250 LOOP 820",
    "city": "FORT WORTH",
    "state": "TX",
    "postal_code": 76112,
    "latitude": 32.82858004,
    "longitude": -97.38190195,
    "phone_number": ""
  },
  {
    "business_id": 10797,
    "name": "MCDONALDS",
    "address": "4375 RISINGER RD",
    "city": "FORT WORTH",
    "state": "TX",
    "postal_code": 76123,
    "latitude": 32.61704971,
    "longitude": -97.38799077,
    "phone_number": ""
  },
  {
    "business_id": 10944,
    "name": "MCDONALDS",
    "address": "3500 ALTAMESA BLVD",
    "city": "FORT WORTH",
    "state": "TX",
    "postal_code": 76133,
    "latitude": 32.64999796,
    "longitude": -97.36757198,
    "phone_number": ""
  },
  {
    "business_id": 10929,
    "name": "MCDONALDS",
    "address": "525 ALTA MERE DR",
    "city": "FORT WORTH",
    "state": "TX",
    "postal_code": 76114,
    "latitude": 32.75277549,
    "longitude": -97.43080809,
    "phone_number": ""
  },
  {
    "business_id": 10923,
    "name": "MCDONALDS",
    "address": "3250 HERITAGE TRACE PKWY",
    "city": "FORT WORTH",
    "state": "TX",
    "postal_code": 76248,
    "latitude": 32.91399913,
    "longitude": -97.3101116,
    "phone_number": ""
  },
  {
    "business_id": 11694,
    "name": "MCDONALDS",
    "address": "3000 BERRY ST",
    "city": "FORT WORTH",
    "state": "TX",
    "postal_code": 76105,
    "latitude": 32.7162345,
    "longitude": -97.23268487,
    "phone_number": ""
  },
  {
    "business_id": 11424,
    "name": "MCDONALDS",
    "address": "8651 SOUTH FREEWAY",
    "city": "FORT WORTH",
    "state": "TX",
    "postal_code": 76134,
    "latitude": 32.62811809,
    "longitude": -97.32142509,
    "phone_number": ""
  },
  {
    "business_id": 11209,
    "name": "MCDONALDS",
    "address": "4800 SOUTH FREEWAY",
    "city": "FORT WORTH",
    "state": "TX",
    "postal_code": 76115,
    "latitude": 32.67735553,
    "longitude": -97.32058705,
    "phone_number": ""
  },
  {
    "business_id": 12078,
    "name": "MCDONALDS",
    "address": "13124 HIGHWAY 287 N",
    "city": "FORT WORTH",
    "state": "TX",
    "postal_code": 76052,
    "latitude": 32.9660202,
    "longitude": -97.41568001,
    "phone_number": ""
  },
  {
    "business_id": 12631,
    "name": "MCDONALDS",
    "address": "3901 AIRPORT FRWY",
    "city": "FORT WORTH",
    "state": "TX",
    "postal_code": 76111,
    "latitude": 32.77433372,
    "longitude": -97.29032002,
    "phone_number": ""
  },
  {
    "business_id": 5026,
    "name": "MCDONALDS",
    "address": "4405 LOOP 820",
    "city": "FORT WORTH",
    "state": "TX",
    "postal_code": 76132,
    "latitude": 32.67943997,
    "longitude": -97.39094262,
    "phone_number": ""
  },
  {
    "business_id": 4863,
    "name": "MCDONALDS",
    "address": "1500 MAIN ST",
    "city": "FORT WORTH",
    "state": "TX",
    "postal_code": 76104,
    "latitude": 32.7796839,
    "longitude": -97.34795273,
    "phone_number": ""
  },
  {
    "business_id": 8277,
    "name": "MCDONALDS",
    "address": "6401 CAMP BOWIE BLVD",
    "city": "FORT WORTH",
    "state": "TX",
    "postal_code": 76116,
    "latitude": 32.72552581,
    "longitude": -97.42283616,
    "phone_number": ""
  },
  {
    "business_id": 5165,
    "name": "MCDONALDS",
    "address": "1420 EASTCHASE PKWY",
    "city": "FORT WORTH",
    "state": "TX",
    "postal_code": 76120,
    "latitude": 32.75906097,
    "longitude": -97.16731287,
    "phone_number": ""
  },
  {
    "business_id": 5358,
    "name": "MCDONALDS",
    "address": "4420 WESTERN CENTER BLVD",
    "city": "FORT WORTH",
    "state": "TX",
    "postal_code": 76137,
    "latitude": 32.86103544,
    "longitude": -97.29136113,
    "phone_number": ""
  },
  {
    "business_id": 5386,
    "name": "MCDONALDS",
    "address": "9559 CLIFFORD ST",
    "city": "FORT WORTH",
    "state": "TX",
    "postal_code": 76108,
    "latitude": 32.76317666,
    "longitude": -97.48252297,
    "phone_number": ""
  },
  {
    "business_id": 8055,
    "name": "MCDONALDS",
    "address": "5901 BRYANT IRVIN RD",
    "city": "FORT WORTH",
    "state": "TX",
    "postal_code": 76132,
    "latitude": 32.66338853,
    "longitude": -97.42149625,
    "phone_number": ""
  },
  {
    "business_id": 9333,
    "name": "MCDONALDS",
    "address": "2250 JACKSBORO HWY",
    "city": "FORT WORTH",
    "state": "TX",
    "postal_code": 76114,
    "latitude": 32.78369379,
    "longitude": -97.37912908,
    "phone_number": ""
  },
  {
    "business_id": 9441,
    "name": "MCDONALDS",
    "address": "2400 ALLIANCE GATEWAY FWY",
    "city": "FORT WORTH",
    "state": "TX",
    "postal_code": 76177,
    "latitude": 32.9584753,
    "longitude": -97.30978898,
    "phone_number": ""
  },
  {
    "business_id": 9354,
    "name": "MCDONALDS",
    "address": "8401 ANDERSON BLVD",
    "city": "FORT WORTH",
    "state": "TX",
    "postal_code": 76120,
    "latitude": 32.76254182,
    "longitude": -97.17124764,
    "phone_number": ""
  },
  {
    "business_id": 9576,
    "name": "MCDONALDS",
    "address": "7451 MCCART AVE",
    "city": "FORT WORTH",
    "state": "TX",
    "postal_code": 76133,
    "latitude": 32.63555115,
    "longitude": -97.36960097,
    "phone_number": ""
  },
  {
    "business_id": 10993,
    "name": "MCDONALDS",
    "address": "3041 WESTERN CENTER BLVD",
    "city": "FORT WORTH",
    "state": "TX",
    "postal_code": 76131,
    "latitude": 32.86107996,
    "longitude": -97.31545862,
    "phone_number": ""
  },
  {
    "business_id": 11553,
    "name": "MCDONALDS",
    "address": "12540 BEACH ST",
    "city": "FORT WORTH",
    "state": "TX",
    "postal_code": 76244,
    "latitude": 32.95439651,
    "longitude": -97.28107225,
    "phone_number": ""
  },
  {
    "business_id": 11654,
    "name": "MCDONALDS",
    "address": "3300 HULEN ST",
    "city": "FORT WORTH",
    "state": "TX",
    "postal_code": 76107,
    "latitude": 32.72810924,
    "longitude": -97.38790983,
    "phone_number": ""
  },
  {
    "business_id": 11198,
    "name": "MCDONALDS",
    "address": "14100 CENTRE STATION DR",
    "city": "FORT WORTH",
    "state": "TX",
    "postal_code": 76155,
    "latitude": 32.82532882,
    "longitude": -97.06067796,
    "phone_number": ""
  },
  {
    "business_id": 12464,
    "name": "MCDONALDS",
    "address": "5124 TARRANT PKWY",
    "city": "FORT WORTH",
    "state": "TX",
    "postal_code": 76244,
    "latitude": 32.89410394,
    "longitude": -97.27388585,
    "phone_number": ""
  },
  {
    "business_id": 9964,
    "name": "MCDONALDS",
    "address": "2832 MAIN ST",
    "city": "FORT WORTH",
    "state": "TX",
    "postal_code": 76106,
    "latitude": 32.79602697,
    "longitude": -97.34928581,
    "phone_number": ""
  },
  {
    "business_id": 5148,
    "name": "MCDONALDS",
    "address": "2525 MEACHAM BLVD",
    "city": "FORT WORTH",
    "state": "TX",
    "postal_code": 76106,
    "latitude": 32.82442056,
    "longitude": -97.31417014,
    "phone_number": ""
  },
  {
    "business_id": 6872,
    "name": "MCDONALDS",
    "address": "3601 CAMP BOWIE BLVD",
    "city": "FORT WORTH",
    "state": "TX",
    "postal_code": 76107,
    "latitude": 32.74735029,
    "longitude": -97.37058645,
    "phone_number": ""
  },
  {
    "business_id": 5385,
    "name": "PANDA EXPRESS",
    "address": "4800 HULEN ST",
    "city": "FORT WORTH",
    "state": "TX",
    "postal_code": 76132,
    "latitude": 32.67775105,
    "longitude": -97.3954381,
    "phone_number": ""
  },
  {
    "business_id": 9958,
    "name": "PANDA EXPRESS",
    "address": "12862 SOUTH FREEWAY",
    "city": "FORT WORTH",
    "state": "TX",
    "postal_code": 76028,
    "latitude": 32.57114579,
    "longitude": -97.3191113,
    "phone_number": ""
  },
  {
    "business_id": 10263,
    "name": "PANDA EXPRESS",
    "address": "7554 MCCART AVE",
    "city": "FORT WORTH",
    "state": "TX",
    "postal_code": 76123,
    "latitude": 32.63355725,
    "longitude": -97.36997892,
    "phone_number": ""
  },
  {
    "business_id": 10078,
    "name": "PANDA EXPRESS",
    "address": "8601 ANDERSON BLVD",
    "city": "FORT WORTH",
    "state": "TX",
    "postal_code": 76120,
    "latitude": 32.76247735,
    "longitude": -97.16863991,
    "phone_number": ""
  },
  {
    "business_id": 10828,
    "name": "PANDA EXPRESS",
    "address": "3140 HULEN ST",
    "city": "FORT WORTH",
    "state": "TX",
    "postal_code": 76109,
    "latitude": 32.72968807,
    "longitude": -97.38789247,
    "phone_number": ""
  },
  {
    "business_id": 10920,
    "name": "PANDA EXPRESS",
    "address": "623 ALTA MERE DR",
    "city": "FORT WORTH",
    "state": "TX",
    "postal_code": 76114,
    "latitude": 32.75166607,
    "longitude": -97.43197213,
    "phone_number": ""
  },
  {
    "business_id": 12211,
    "name": "PANDA EXPRESS",
    "address": "2928 BERRY ST",
    "city": "FORT WORTH",
    "state": "TX",
    "postal_code": 76105,
    "latitude": 32.71685789,
    "longitude": -97.23311115,
    "phone_number": ""
  },
  {
    "business_id": 12326,
    "name": "PIZZA HUT",
    "address": "2485 AVONDALE HASLET RD",
    "city": "FORT WORTH",
    "state": "TX",
    "postal_code": 76052,
    "latitude": 32.96783676,
    "longitude": -97.41628828,
    "phone_number": ""
  },
  {
    "business_id": 5492,
    "name": "PIZZA HUT",
    "address": "6445 MCCART AVE",
    "city": "FORT WORTH",
    "state": "TX",
    "postal_code": 76133,
    "latitude": 32.65056958,
    "longitude": -97.3664335,
    "phone_number": ""
  },
  {
    "business_id": 4293,
    "name": "PIZZA HUT",
    "address": "1316 SYCAMORE SCHOOL RD",
    "city": "FORT WORTH",
    "state": "TX",
    "postal_code": 76134,
    "latitude": 32.63527559,
    "longitude": -97.33786316,
    "phone_number": ""
  },
  {
    "business_id": 8907,
    "name": "PIZZA HUT",
    "address": "5400 OVERTON RIDGE BLVD",
    "city": "FORT WORTH",
    "state": "TX",
    "postal_code": 76132,
    "latitude": 32.67567406,
    "longitude": -97.41077442,
    "phone_number": ""
  },
  {
    "business_id": 11117,
    "name": "PIZZA HUT",
    "address": "4233 LANCASTER AVE",
    "city": "FORT WORTH",
    "state": "TX",
    "postal_code": 76103,
    "latitude": 32.74102067,
    "longitude": -97.26104244,
    "phone_number": ""
  },
  {
    "business_id": 11695,
    "name": "PIZZA HUT",
    "address": "12584 BEACH ST",
    "city": "FORT WORTH",
    "state": "TX",
    "postal_code": 76247,
    "latitude": 32.95478965,
    "longitude": -97.28107224,
    "phone_number": ""
  },
  {
    "business_id": 12440,
    "name": "PIZZA HUT",
    "address": "9641 WHITE SETTLEMENT RD",
    "city": "FORT WORTH",
    "state": "TX",
    "postal_code": 76108,
    "latitude": 32.76180164,
    "longitude": -97.48491142,
    "phone_number": ""
  },
  {
    "business_id": 12630,
    "name": "PIZZA HUT",
    "address": "6415 BEACH ST",
    "city": "FORT WORTH",
    "state": "TX",
    "postal_code": 76137,
    "latitude": 32.85929047,
    "longitude": -97.29018191,
    "phone_number": ""
  },
  {
    "business_id": 10008,
    "name": "PIZZA HUT",
    "address": "10736 BEACH ST",
    "city": "FORT WORTH",
    "state": "TX",
    "postal_code": 76244,
    "latitude": 32.93003198,
    "longitude": -97.2891981,
    "phone_number": ""
  },
  {
    "business_id": 4224,
    "name": "PIZZA HUT",
    "address": "4640 CAMP BOWIE BLVD",
    "city": "FORT WORTH",
    "state": "TX",
    "postal_code": 76107,
    "latitude": 32.74015315,
    "longitude": -97.38848361,
    "phone_number": ""
  },
  {
    "business_id": 6909,
    "name": "PIZZA HUT",
    "address": "2400 BERRY ST",
    "city": "FORT WORTH",
    "state": "TX",
    "postal_code": 76110,
    "latitude": 32.70609968,
    "longitude": -97.35237723,
    "phone_number": ""
  },
  {
    "business_id": 9374,
    "name": "PIZZA HUT",
    "address": "1801 EASTCHASE PKWY",
    "city": "FORT WORTH",
    "state": "TX",
    "postal_code": 76120,
    "latitude": 32.75324254,
    "longitude": -97.17075044,
    "phone_number": ""
  },
  {
    "business_id": 4183,
    "name": "PIZZA HUT",
    "address": "6330 MEADOWBROOK DR",
    "city": "FORT WORTH",
    "state": "TX",
    "postal_code": 76112,
    "latitude": 32.74601776,
    "longitude": -97.2212678,
    "phone_number": ""
  },
  {
    "business_id": 2728,
    "name": "PIZZA HUT",
    "address": "2808 MAIN ST",
    "city": "FORT WORTH",
    "state": "TX",
    "postal_code": 76106,
    "latitude": 32.79549348,
    "longitude": -97.34911433,
    "phone_number": ""
  },
  {
    "business_id": 10607,
    "name": "PIZZA HUT",
    "address": "14113 TRINITY BLVD",
    "city": "FORT WORTH",
    "state": "TX",
    "postal_code": 76155,
    "latitude": 32.82235179,
    "longitude": -97.0603156,
    "phone_number": ""
  },
  {
    "business_id": 10608,
    "name": "PIZZA HUT",
    "address": "7236 BLUE MOUND RD",
    "city": "FORT WORTH",
    "state": "TX",
    "postal_code": 76131,
    "latitude": 32.8718845,
    "longitude": -97.34238272,
    "phone_number": ""
  },
  {
    "business_id": 10335,
    "name": "SONIC",
    "address": "4200 SOUTH FREEWAY",
    "city": "FORT WORTH",
    "state": "TX",
    "postal_code": 76115,
    "latitude": 32.68740894,
    "longitude": -97.32079904,
    "phone_number": ""
  },
  {
    "business_id": 10129,
    "name": "SONIC",
    "address": "1700 WESTERN CENTER BLVD",
    "city": "FORT WORTH",
    "state": "TX",
    "postal_code": 76131,
    "latitude": 32.86352891,
    "longitude": -97.34034454,
    "phone_number": ""
  },
  {
    "business_id": 9899,
    "name": "SONIC",
    "address": "3078 BASSWOOD BLVD",
    "city": "FORT WORTH",
    "state": "TX",
    "postal_code": 76137,
    "latitude": 32.87261855,
    "longitude": -97.31303079,
    "phone_number": ""
  },
  {
    "business_id": 10083,
    "name": "SONIC",
    "address": "7101 BOAT CLUB RD",
    "city": "FORT WORTH",
    "state": "TX",
    "postal_code": 76179,
    "latitude": 32.86515576,
    "longitude": -97.42619622,
    "phone_number": ""
  },
  {
    "business_id": 10172,
    "name": "SONIC",
    "address": "8661 BEACH ST",
    "city": "FORT WORTH",
    "state": "TX",
    "postal_code": 76248,
    "latitude": 32.89775983,
    "longitude": -97.28982726,
    "phone_number": ""
  },
  {
    "business_id": 9801,
    "name": "SONIC",
    "address": "8625 CAMP BOWIE WEST BLVD",
    "city": "FORT WORTH",
    "state": "TX",
    "postal_code": 76116,
    "latitude": 32.7242205,
    "longitude": -97.46608407,
    "phone_number": ""
  },
  {
    "business_id": 6648,
    "name": "SONIC",
    "address": "1800 BERRY ST",
    "city": "FORT WORTH",
    "state": "TX",
    "postal_code": 76110,
    "latitude": 32.70607804,
    "longitude": -97.34603394,
    "phone_number": ""
  },
  {
    "business_id": 1069,
    "name": "SONIC",
    "address": "301 UNIVERSITY DR",
    "city": "FORT WORTH",
    "state": "TX",
    "postal_code": 76107,
    "latitude": 32.75556687,
    "longitude": -97.36112333,
    "phone_number": ""
  },
  {
    "business_id": 11009,
    "name": "SONIC",
    "address": "2000 ALTAMESA BLVD",
    "city": "FORT WORTH",
    "state": "TX",
    "postal_code": 76134,
    "latitude": 32.64900163,
    "longitude": -97.34861627,
    "phone_number": ""
  },
  {
    "business_id": 6603,
    "name": "SONIC",
    "address": "2660 MAIN ST",
    "city": "FORT WORTH",
    "state": "TX",
    "postal_code": 76106,
    "latitude": 32.79280057,
    "longitude": -97.34907146,
    "phone_number": ""
  },
  {
    "business_id": 7443,
    "name": "SONIC",
    "address": "5851 OVERTON RIDGE BLVD",
    "city": "FORT WORTH",
    "state": "TX",
    "postal_code": 76132,
    "latitude": 32.67650593,
    "longitude": -97.41528319,
    "phone_number": ""
  },
  {
    "business_id": 9007,
    "name": "SONIC",
    "address": "9560 CLIFFORD ST",
    "city": "FORT WORTH",
    "state": "TX",
    "postal_code": 76108,
    "latitude": 32.76338184,
    "longitude": -97.48278604,
    "phone_number": ""
  },
  {
    "business_id": 9723,
    "name": "SONIC",
    "address": "4500 GOLDEN TRIANGLE BLVD",
    "city": "FORT WORTH",
    "state": "TX",
    "postal_code": 76248,
    "latitude": 32.93139473,
    "longitude": -97.28814602,
    "phone_number": ""
  },
  {
    "business_id": 9559,
    "name": "SONIC",
    "address": "108 NICHOLS ST",
    "city": "FORT WORTH",
    "state": "TX",
    "postal_code": 76102,
    "latitude": 32.76096323,
    "longitude": -97.32477197,
    "phone_number": ""
  },
  {
    "business_id": 10041,
    "name": "SONIC",
    "address": "117 SYCAMORE SCHOOL RD",
    "city": "FORT WORTH",
    "state": "TX",
    "postal_code": 76134,
    "latitude": 32.63510389,
    "longitude": -97.32217929,
    "phone_number": ""
  },
  {
    "business_id": 10632,
    "name": "SONIC",
    "address": "10169 FIRST CHAPEL DR",
    "city": "FORT WORTH",
    "state": "TX",
    "postal_code": 76108,
    "latitude": 32.72866156,
    "longitude": -97.5027464,
    "phone_number": ""
  },
  {
    "business_id": 10288,
    "name": "SONIC",
    "address": "1888 GREEN OAKS RD",
    "city": "FORT WORTH",
    "state": "TX",
    "postal_code": 76116,
    "latitude": 32.74067997,
    "longitude": -97.43390418,
    "phone_number": ""
  },
  {
    "business_id": 11320,
    "name": "SONIC",
    "address": "4800 HULEN ST",
    "city": "FORT WORTH",
    "state": "TX",
    "postal_code": 76132,
    "latitude": 32.67775105,
    "longitude": -97.3954381,
    "phone_number": ""
  },
  {
    "business_id": 10154,
    "name": "SONIC",
    "address": "3701 SYCAMORE SCHOOL RD",
    "city": "FORT WORTH",
    "state": "TX",
    "postal_code": 76133,
    "latitude": 32.63473132,
    "longitude": -97.37325819,
    "phone_number": ""
  },
  {
    "business_id": 8487,
    "name": "SONIC",
    "address": "5009 TRAIL LAKE DR",
    "city": "FORT WORTH",
    "state": "TX",
    "postal_code": 76133,
    "latitude": 32.67135662,
    "longitude": -97.37550108,
    "phone_number": ""
  },
  {
    "business_id": 8541,
    "name": "SONIC",
    "address": "6217 CAMP BOWIE BLVD",
    "city": "FORT WORTH",
    "state": "TX",
    "postal_code": 76116,
    "latitude": 32.72812004,
    "longitude": -97.41659786,
    "phone_number": ""
  },
  {
    "business_id": 11894,
    "name": "STARBUCKS",
    "address": "5901 CAMP BOWIE BLVD",
    "city": "FORT WORTH",
    "state": "TX",
    "postal_code": 76107,
    "latitude": 32.7302279,
    "longitude": -97.41156279,
    "phone_number": ""
  },
  {
    "business_id": 11882,
    "name": "STARBUCKS",
    "address": "7441 MCCART AVE",
    "city": "FORT WORTH",
    "state": "TX",
    "postal_code": 76133,
    "latitude": 32.6356703,
    "longitude": -97.36959837,
    "phone_number": ""
  },
  {
    "business_id": 10631,
    "name": "STARBUCKS",
    "address": "1608 ROSEDALE ST",
    "city": "FORT WORTH",
    "state": "TX",
    "postal_code": 76104,
    "latitude": 32.73326064,
    "longitude": -97.3439659,
    "phone_number": ""
  },
  {
    "business_id": 12189,
    "name": "STARBUCKS",
    "address": "8601 SOUTH FWY",
    "city": "FORT WORTH",
    "state": "TX",
    "postal_code": 76134,
    "latitude": 32.62854876,
    "longitude": -97.32142409,
    "phone_number": ""
  },
  {
    "business_id": 12645,
    "name": "STARBUCKS",
    "address": "8825 NORTH FREEWAY",
    "city": "FORT WORTH",
    "state": "TX",
    "postal_code": 76177,
    "latitude": 32.89922038,
    "longitude": -97.31738723,
    "phone_number": ""
  },
  {
    "business_id": 9475,
    "name": "STARBUCKS",
    "address": "3250 HULEN ST",
    "city": "FORT WORTH",
    "state": "TX",
    "postal_code": 76107,
    "latitude": 32.72860824,
    "longitude": -97.38790382,
    "phone_number": ""
  },
  {
    "business_id": 10068,
    "name": "STARBUCKS",
    "address": "5000 TRAIL LAKE DR",
    "city": "FORT WORTH",
    "state": "TX",
    "postal_code": 76133,
    "latitude": 32.67233774,
    "longitude": -97.37551513,
    "phone_number": ""
  },
  {
    "business_id": 10491,
    "name": "STARBUCKS",
    "address": "14121 TRINITY BLVD",
    "city": "FORT WORTH",
    "state": "TX",
    "postal_code": 76155,
    "latitude": 32.82236648,
    "longitude": -97.06008535,
    "phone_number": ""
  },
  {
    "business_id": 10573,
    "name": "STARBUCKS",
    "address": "5731 HULEN ST",
    "city": "FORT WORTH",
    "state": "TX",
    "postal_code": 76132,
    "latitude": 32.66556581,
    "longitude": -97.40119288,
    "phone_number": ""
  },
  {
    "business_id": 11542,
    "name": "STARBUCKS",
    "address": "3300 HERITAGE TRACE PKWY",
    "city": "FORT WORTH",
    "state": "TX",
    "postal_code": 76177,
    "latitude": 32.91392149,
    "longitude": -97.30952795,
    "phone_number": ""
  },
  {
    "business_id": 12172,
    "name": "STARBUCKS",
    "address": "7429 OAKMONT BLVD",
    "city": "FORT WORTH",
    "state": "TX",
    "postal_code": 76132,
    "latitude": 32.66163832,
    "longitude": -97.42111149,
    "phone_number": ""
  },
  {
    "business_id": 5944,
    "name": "STARBUCKS",
    "address": "6115 CAMP BOWIE BLVD",
    "city": "FORT WORTH",
    "state": "TX",
    "postal_code": 76116,
    "latitude": 32.72869746,
    "longitude": -97.41522431,
    "phone_number": ""
  },
  {
    "business_id": 8775,
    "name": "STARBUCKS",
    "address": "4849 BRYANT IRVIN RD",
    "city": "FORT WORTH",
    "state": "TX",
    "postal_code": 76132,
    "latitude": 32.67880455,
    "longitude": -97.41512159,
    "phone_number": ""
  },
  {
    "business_id": 8515,
    "name": "STARBUCKS",
    "address": "6405 BEACH ST",
    "city": "FORT WORTH",
    "state": "TX",
    "postal_code": 76137,
    "latitude": 32.85919725,
    "longitude": -97.29018153,
    "phone_number": ""
  },
  {
    "business_id": 9902,
    "name": "STARBUCKS",
    "address": "3034 WESTERN CENTER BLVD",
    "city": "FORT WORTH",
    "state": "TX",
    "postal_code": 76131,
    "latitude": 32.86097745,
    "longitude": -97.31571204,
    "phone_number": ""
  },
  {
    "business_id": 10085,
    "name": "STARBUCKS",
    "address": "132 LOOP 820 S",
    "city": "FORT WORTH",
    "state": "TX",
    "postal_code": 76108,
    "latitude": 32.76032671,
    "longitude": -97.47813286,
    "phone_number": ""
  },
  {
    "business_id": 10198,
    "name": "STARBUCKS",
    "address": "2600 7TH ST",
    "city": "FORT WORTH",
    "state": "TX",
    "postal_code": 76107,
    "latitude": 32.75113052,
    "longitude": -97.35339042,
    "phone_number": ""
  },
  {
    "business_id": 7619,
    "name": "STARBUCKS",
    "address": "3000 HULEN ST",
    "city": "FORT WORTH",
    "state": "TX",
    "postal_code": 76109,
    "latitude": 32.73085868,
    "longitude": -97.38788211,
    "phone_number": ""
  },
  {
    "business_id": 6747,
    "name": "SUBWAY",
    "address": "1100 BRIDGEWOOD DR",
    "city": "FORT WORTH",
    "state": "TX",
    "postal_code": 76112,
    "latitude": 32.76492923,
    "longitude": -97.21775205,
    "phone_number": ""
  },
  {
    "business_id": 6080,
    "name": "SUBWAY",
    "address": "2400 MEACHAM BLVD",
    "city": "FORT WORTH",
    "state": "TX",
    "postal_code": 76106,
    "latitude": 32.82443742,
    "longitude": -97.31923045,
    "phone_number": ""
  },
  {
    "business_id": 609,
    "name": "SUBWAY",
    "address": "1200 8TH AVE",
    "city": "FORT WORTH",
    "state": "TX",
    "postal_code": 76104,
    "latitude": 32.73189057,
    "longitude": -97.34383945,
    "phone_number": ""
  },
  {
    "business_id": 3930,
    "name": "SUBWAY",
    "address": "6316 MEADOWBROOK DR",
    "city": "FORT WORTH",
    "state": "TX",
    "postal_code": 76112,
    "latitude": 32.74601689,
    "longitude": -97.22145228,
    "phone_number": ""
  },
  {
    "business_id": 3373,
    "name": "SUBWAY",
    "address": "5822 CAMP BOWIE BLVD",
    "city": "FORT WORTH",
    "state": "TX",
    "postal_code": 76107,
    "latitude": 32.73107112,
    "longitude": -97.41021339,
    "phone_number": ""
  },
  {
    "business_id": 7721,
    "name": "SUBWAY",
    "address": "4750 BRYANT IRVIN RD",
    "city": "FORT WORTH",
    "state": "TX",
    "postal_code": 76132,
    "latitude": 32.67996081,
    "longitude": -97.41475084,
    "phone_number": ""
  },
  {
    "business_id": 7477,
    "name": "SUBWAY",
    "address": "6080 HULEN ST",
    "city": "FORT WORTH",
    "state": "TX",
    "postal_code": 76132,
    "latitude": 32.6602085,
    "longitude": -97.40091402,
    "phone_number": ""
  },
  {
    "business_id": 8427,
    "name": "SUBWAY",
    "address": "205 28TH ST",
    "city": "FORT WORTH",
    "state": "TX",
    "postal_code": 76106,
    "latitude": 32.79519647,
    "longitude": -97.35047019,
    "phone_number": ""
  },
  {
    "business_id": 8548,
    "name": "SUBWAY",
    "address": "3501 SYCAMORE SCHOOL RD",
    "city": "FORT WORTH",
    "state": "TX",
    "postal_code": 76133,
    "latitude": 32.63478796,
    "longitude": -97.37003997,
    "phone_number": ""
  },
  {
    "business_id": 8654,
    "name": "SUBWAY",
    "address": "1888 GREEN OAKS RD",
    "city": "FORT WORTH",
    "state": "TX",
    "postal_code": 76116,
    "latitude": 32.74067997,
    "longitude": -97.43390418,
    "phone_number": ""
  },
  {
    "business_id": 8666,
    "name": "SUBWAY",
    "address": "1101 SEMINARY DR",
    "city": "FORT WORTH",
    "state": "TX",
    "postal_code": 76115,
    "latitude": 32.68464408,
    "longitude": -97.33622962,
    "phone_number": ""
  },
  {
    "business_id": 8212,
    "name": "SUBWAY",
    "address": "4612 LOOP 820",
    "city": "FORT WORTH",
    "state": "TX",
    "postal_code": 76109,
    "latitude": 32.68155856,
    "longitude": -97.39347049,
    "phone_number": ""
  },
  {
    "business_id": 9278,
    "name": "SUBWAY",
    "address": "8401 BOAT CLUB RD",
    "city": "FORT WORTH",
    "state": "TX",
    "postal_code": 76179,
    "latitude": 32.87574452,
    "longitude": -97.42599043,
    "phone_number": ""
  },
  {
    "business_id": 8782,
    "name": "SUBWAY",
    "address": "5631 CROWLEY RD",
    "city": "FORT WORTH",
    "state": "TX",
    "postal_code": 76134,
    "latitude": 32.66458288,
    "longitude": -97.3469416,
    "phone_number": ""
  },
  {
    "business_id": 8982,
    "name": "SUBWAY",
    "address": "500 7TH ST",
    "city": "FORT WORTH",
    "state": "TX",
    "postal_code": 76102,
    "latitude": 32.76942578,
    "longitude": -97.33846307,
    "phone_number": ""
  },
  {
    "business_id": 8983,
    "name": "SUBWAY",
    "address": "1920 EPHRIHAM AVE",
    "city": "FORT WORTH",
    "state": "TX",
    "postal_code": 76106,
    "latitude": 32.78692393,
    "longitude": -97.38154833,
    "phone_number": ""
  },
  {
    "business_id": 10086,
    "name": "SUBWAY",
    "address": "5811 BRYANT IRVIN RD",
    "city": "FORT WORTH",
    "state": "TX",
    "postal_code": 76132,
    "latitude": 32.66467391,
    "longitude": -97.42069985,
    "phone_number": ""
  },
  {
    "business_id": 10106,
    "name": "SUBWAY",
    "address": "5111 BEACH ST",
    "city": "FORT WORTH",
    "state": "TX",
    "postal_code": 76137,
    "latitude": 32.83505071,
    "longitude": -97.29058894,
    "phone_number": ""
  },
  {
    "business_id": 10040,
    "name": "SUBWAY",
    "address": "3869 MAURICE AVE",
    "city": "FORT WORTH",
    "state": "TX",
    "postal_code": 76111,
    "latitude": 32.77581581,
    "longitude": -97.29072921,
    "phone_number": ""
  },
  {
    "business_id": 9613,
    "name": "SUBWAY",
    "address": "800 5TH AVE",
    "city": "FORT WORTH",
    "state": "TX",
    "postal_code": 76104,
    "latitude": 32.73625773,
    "longitude": -97.33858122,
    "phone_number": ""
  },
  {
    "business_id": 9683,
    "name": "SUBWAY",
    "address": "8556 HULEN ST",
    "city": "FORT WORTH",
    "state": "TX",
    "postal_code": 76123,
    "latitude": 32.61781481,
    "longitude": -97.38865849,
    "phone_number": ""
  },
  {
    "business_id": 11995,
    "name": "SUBWAY",
    "address": "2245 JACKSBORO HWY",
    "city": "FORT WORTH",
    "state": "TX",
    "postal_code": 76114,
    "latitude": 32.78378459,
    "longitude": -97.38025448,
    "phone_number": ""
  },
  {
    "business_id": 12185,
    "name": "SUBWAY",
    "address": "301 NORTHSIDE DR",
    "city": "FORT WORTH",
    "state": "TX",
    "postal_code": 76164,
    "latitude": 32.77574483,
    "longitude": -97.34665442,
    "phone_number": ""
  },
  {
    "business_id": 12217,
    "name": "SUBWAY",
    "address": "616 ROSEDALE",
    "city": "FORT WORTH",
    "state": "TX",
    "postal_code": 76104,
    "latitude": 32.73322515,
    "longitude": -97.33087391,
    "phone_number": ""
  },
  {
    "business_id": 12166,
    "name": "SUBWAY",
    "address": "3841 LOOP 820 SOUTH",
    "city": "FORT WORTH",
    "state": "TX",
    "postal_code": 76119,
    "latitude": 32.71775988,
    "longitude": -97.47897111,
    "phone_number": ""
  },
  {
    "business_id": 12160,
    "name": "SUBWAY",
    "address": "2910 BERRY ST",
    "city": "FORT WORTH",
    "state": "TX",
    "postal_code": 76119,
    "latitude": 32.71699819,
    "longitude": -97.23320702,
    "phone_number": ""
  },
  {
    "business_id": 12107,
    "name": "SUBWAY",
    "address": "2401 AVONDALE HASLET RD",
    "city": "FORT WORTH",
    "state": "TX",
    "postal_code": 76052,
    "latitude": 32.96862535,
    "longitude": -97.41236334,
    "phone_number": ""
  },
  {
    "business_id": 11729,
    "name": "SUBWAY",
    "address": "3088 BASSWOOD BLVD",
    "city": "FORT WORTH",
    "state": "TX",
    "postal_code": 76137,
    "latitude": 32.87261778,
    "longitude": -97.31271168,
    "phone_number": ""
  },
  {
    "business_id": 11696,
    "name": "SUBWAY",
    "address": "3548 SOUTH HILLS AVE",
    "city": "FORT WORTH",
    "state": "TX",
    "postal_code": 76109,
    "latitude": 32.69644232,
    "longitude": -97.36879355,
    "phone_number": ""
  },
  {
    "business_id": 11359,
    "name": "SUBWAY",
    "address": "6421 BEACH ST",
    "city": "FORT WORTH",
    "state": "TX",
    "postal_code": 76137,
    "latitude": 32.8593464,
    "longitude": -97.29018213,
    "phone_number": ""
  },
  {
    "business_id": 11225,
    "name": "SUBWAY",
    "address": "1664 UNIVERSITY DR",
    "city": "FORT WORTH",
    "state": "TX",
    "postal_code": 76107,
    "latitude": 32.74336665,
    "longitude": -97.36156934,
    "phone_number": ""
  },
  {
    "business_id": 10409,
    "name": "SUBWAY",
    "address": "3529 HERITAGE TRACE PKWY",
    "city": "FORT WORTH",
    "state": "TX",
    "postal_code": 76244,
    "latitude": 32.913802,
    "longitude": -97.30629181,
    "phone_number": ""
  },
  {
    "business_id": 10411,
    "name": "SUBWAY",
    "address": "2977 PRECINCT LINE RD",
    "city": "FORT WORTH",
    "state": "TX",
    "postal_code": 76118,
    "latitude": 32.8017954,
    "longitude": -97.18310662,
    "phone_number": ""
  },
  {
    "business_id": 10630,
    "name": "SUBWAY",
    "address": "1001 JONES ST",
    "city": "FORT WORTH",
    "state": "TX",
    "postal_code": 76102,
    "latitude": 32.75249312,
    "longitude": -97.32669496,
    "phone_number": ""
  },
  {
    "business_id": 10520,
    "name": "SUBWAY",
    "address": "2421 WESTPORT PKWY",
    "city": "FORT WORTH",
    "state": "TX",
    "postal_code": 76177,
    "latitude": 32.97236328,
    "longitude": -97.31014767,
    "phone_number": ""
  },
  {
    "business_id": 10174,
    "name": "SUBWAY",
    "address": "501 CARROLL ST",
    "city": "FORT WORTH",
    "state": "TX",
    "postal_code": 76107,
    "latitude": 32.75374488,
    "longitude": -97.35461571,
    "phone_number": ""
  },
  {
    "business_id": 10175,
    "name": "SUBWAY",
    "address": "3851 AIRPORT FWY",
    "city": "FORT WORTH",
    "state": "TX",
    "postal_code": 76111,
    "latitude": 32.77378791,
    "longitude": -97.29146737,
    "phone_number": ""
  },
  {
    "business_id": 10247,
    "name": "SUBWAY",
    "address": "9500 CLIFFORD ST",
    "city": "FORT WORTH",
    "state": "TX",
    "postal_code": 76108,
    "latitude": 32.76415923,
    "longitude": -97.48123114,
    "phone_number": ""
  },
  {
    "business_id": 11149,
    "name": "SUBWAY",
    "address": "3012 ROSEDALE ST",
    "city": "FORT WORTH",
    "state": "TX",
    "postal_code": 76105,
    "latitude": 32.73090562,
    "longitude": -97.36179811,
    "phone_number": ""
  },
  {
    "business_id": 10864,
    "name": "SUBWAY",
    "address": "10139 WEST FREEWAY",
    "city": "FORT WORTH",
    "state": "TX",
    "postal_code": 76108,
    "latitude": 32.7299821,
    "longitude": -97.50216675,
    "phone_number": ""
  },
  {
    "business_id": 10736,
    "name": "SUBWAY",
    "address": "12404 TIMBERLAND BLVD",
    "city": "FORT WORTH",
    "state": "TX",
    "postal_code": 76244,
    "latitude": 32.95293375,
    "longitude": -97.28365725,
    "phone_number": ""
  },
  {
    "business_id": 10737,
    "name": "SUBWAY",
    "address": "2828 HULEN ST",
    "city": "FORT WORTH",
    "state": "TX",
    "postal_code": 76109,
    "latitude": 32.73229686,
    "longitude": -97.38786938,
    "phone_number": ""
  },
  {
    "business_id": 10380,
    "name": "SUBWAY",
    "address": "14500 TRINITY BLVD",
    "city": "FORT WORTH",
    "state": "TX",
    "postal_code": 76155,
    "latitude": 32.82214795,
    "longitude": -97.05299763,
    "phone_number": ""
  },
  {
    "business_id": 4418,
    "name": "SUBWAY",
    "address": "7818 SOUTH FREEWAY",
    "city": "FORT WORTH",
    "state": "TX",
    "postal_code": 76134,
    "latitude": 32.63569269,
    "longitude": -97.32169858,
    "phone_number": ""
  },
  {
    "business_id": 8365,
    "name": "SUBWAY",
    "address": "1550 EASTCHASE PKWY",
    "city": "FORT WORTH",
    "state": "TX",
    "postal_code": 76120,
    "latitude": 32.75644918,
    "longitude": -97.16832691,
    "phone_number": ""
  },
  {
    "business_id": 9179,
    "name": "SUBWAY",
    "address": "3107 GREENE AVE",
    "city": "FORT WORTH",
    "state": "TX",
    "postal_code": 76109,
    "latitude": 32.70596532,
    "longitude": -97.35824934,
    "phone_number": ""
  },
  {
    "business_id": 8221,
    "name": "SUBWAY",
    "address": "9082 CAMP BOWIE WEST BLVD",
    "city": "FORT WORTH",
    "state": "TX",
    "postal_code": 76116,
    "latitude": 32.72462573,
    "longitude": -97.47568267,
    "phone_number": ""
  },
  {
    "business_id": 9727,
    "name": "SUBWAY",
    "address": "10724 BEACH ST",
    "city": "FORT WORTH",
    "state": "TX",
    "postal_code": 76248,
    "latitude": 32.9299254,
    "longitude": -97.28919979,
    "phone_number": ""
  },
  {
    "business_id": 9652,
    "name": "SUBWAY",
    "address": "3405 MANSFIELD HWY",
    "city": "FORT WORTH",
    "state": "TX",
    "postal_code": 76119,
    "latitude": 32.68111326,
    "longitude": -97.27516517,
    "phone_number": ""
  },
  {
    "business_id": 10035,
    "name": "SUBWAY",
    "address": "5030 TRAIL LAKE DR",
    "city": "FORT WORTH",
    "state": "TX",
    "postal_code": 76133,
    "latitude": 32.67082355,
    "longitude": -97.37555987,
    "phone_number": ""
  },
  {
    "business_id": 7134,
    "name": "SUBWAY",
    "address": "4800 HULEN ST",
    "city": "FORT WORTH",
    "state": "TX",
    "postal_code": 76132,
    "latitude": 32.67775105,
    "longitude": -97.3954381,
    "phone_number": ""
  },
  {
    "business_id": 9802,
    "name": "SUBWAY",
    "address": "3524 ALTAMESA BLVD",
    "city": "FORT WORTH",
    "state": "TX",
    "postal_code": 76133,
    "latitude": 32.65005296,
    "longitude": -97.36815576,
    "phone_number": ""
  },
  {
    "business_id": 10610,
    "name": "SUBWAY",
    "address": "100 THROCKMORTON ST",
    "city": "FORT WORTH",
    "state": "TX",
    "postal_code": 76102,
    "latitude": 32.75630854,
    "longitude": -97.33455421,
    "phone_number": ""
  },
  {
    "business_id": 11652,
    "name": "SUBWAY",
    "address": "5800 TARRANT PKWY",
    "city": "FORT WORTH",
    "state": "TX",
    "postal_code": 76244,
    "latitude": 32.89473087,
    "longitude": -97.26228345,
    "phone_number": ""
  },
  {
    "business_id": 11538,
    "name": "SUBWAY",
    "address": "2917 ALTA MERE DR",
    "city": "FORT WORTH",
    "state": "TX",
    "postal_code": 76116,
    "latitude": 32.7324293,
    "longitude": -97.44062438,
    "phone_number": ""
  },
  {
    "business_id": 11698,
    "name": "SUBWAY",
    "address": "5301 CAMPUS DR",
    "city": "FORT WORTH",
    "state": "TX",
    "postal_code": 76119,
    "latitude": 32.67019367,
    "longitude": -97.29371675,
    "phone_number": ""
  },
  {
    "business_id": 11862,
    "name": "SUBWAY",
    "address": "2900 RENAISSANCE SQ",
    "city": "FORT WORTH",
    "state": "TX",
    "postal_code": 76105,
    "latitude": 32.71233525,
    "longitude": -97.28403168,
    "phone_number": ""
  },
  {
    "business_id": 8461,
    "name": "SUBWAY",
    "address": "2001 8TH AVE",
    "city": "FORT WORTH",
    "state": "TX",
    "postal_code": 76110,
    "latitude": 32.72222125,
    "longitude": -97.34371798,
    "phone_number": ""
  },
  {
    "business_id": 11968,
    "name": "SUBWAY",
    "address": "825 HOUSTON ST",
    "city": "FORT WORTH",
    "state": "TX",
    "postal_code": 76102,
    "latitude": 32.75215089,
    "longitude": -97.33054082,
    "phone_number": ""
  },
  {
    "business_id": 12040,
    "name": "SUBWAY",
    "address": "2484 AVONDALE HASLET RD",
    "city": "FORT WORTH",
    "state": "TX",
    "postal_code": 76052,
    "latitude": 32.9679467,
    "longitude": -97.41628705,
    "phone_number": ""
  },
  {
    "business_id": 12556,
    "name": "SUBWAY",
    "address": "7701 CROWLEY RD",
    "city": "FORT WORTH",
    "state": "TX",
    "postal_code": 76134,
    "latitude": 32.636831,
    "longitude": -97.34838655,
    "phone_number": ""
  },
  {
    "business_id": 10602,
    "name": "SUBWAY",
    "address": "2720 WESTERN CENTER BLVD",
    "city": "FORT WORTH",
    "state": "TX",
    "postal_code": 76131,
    "latitude": 32.86106729,
    "longitude": -97.32029276,
    "phone_number": ""
  },
  {
    "business_id": 9920,
    "name": "SUBWAY",
    "address": "8561 BEACH ST",
    "city": "FORT WORTH",
    "state": "TX",
    "postal_code": 76248,
    "latitude": 32.89557651,
    "longitude": -97.28981961,
    "phone_number": ""
  },
  {
    "business_id": 6439,
    "name": "SUBWAY",
    "address": "4228 VICKERY BLVD",
    "city": "FORT WORTH",
    "state": "TX",
    "postal_code": 76107,
    "latitude": 32.72582943,
    "longitude": -97.37919432,
    "phone_number": ""
  },
  {
    "business_id": 10930,
    "name": "SUBWAY",
    "address": "301 CLIFFORD CENTER DR",
    "city": "FORT WORTH",
    "state": "TX",
    "postal_code": 76108,
    "latitude": 32.76406543,
    "longitude": -97.47910836,
    "phone_number": ""
  },
  {
    "business_id": 11893,
    "name": "TACO BELL",
    "address": "1913 BERRY ST",
    "city": "FORT WORTH",
    "state": "TX",
    "postal_code": 76110,
    "latitude": 32.70597033,
    "longitude": -97.34739437,
    "phone_number": ""
  },
  {
    "business_id": 12682,
    "name": "TACO BELL",
    "address": "13050 HWY 287",
    "city": "FORT WORTH",
    "state": "TX",
    "postal_code": 0,
    "latitude": 32.96443356,
    "longitude": -97.41323612,
    "phone_number": ""
  },
  {
    "business_id": 5965,
    "name": "TACO BELL",
    "address": "1435 EASTCHASE PKWY",
    "city": "FORT WORTH",
    "state": "TX",
    "postal_code": 76120,
    "latitude": 32.75869179,
    "longitude": -97.1671335,
    "phone_number": ""
  },
  {
    "business_id": 6644,
    "name": "TACO BELL",
    "address": "9180 CAMP BOWIE WEST BLVD",
    "city": "FORT WORTH",
    "state": "TX",
    "postal_code": 76116,
    "latitude": 32.72464357,
    "longitude": -97.47725569,
    "phone_number": ""
  },
  {
    "business_id": 10355,
    "name": "TACO BELL",
    "address": "3150 SYCAMORE SCHOOL RD",
    "city": "FORT WORTH",
    "state": "TX",
    "postal_code": 76133,
    "latitude": 32.6350528,
    "longitude": -97.36568125,
    "phone_number": ""
  },
  {
    "business_id": 12690,
    "name": "TACO BELL",
    "address": "4300 HWY 360",
    "city": "FORT WORTH",
    "state": "TX",
    "postal_code": 76155,
    "latitude": 32.82687614,
    "longitude": -97.06104378,
    "phone_number": ""
  },
  {
    "business_id": 6674,
    "name": "TACO BELL",
    "address": "1701 CALIFORNIA PKWY S",
    "city": "FORT WORTH",
    "state": "TX",
    "postal_code": 76134,
    "latitude": 32.66529676,
    "longitude": -97.34510819,
    "phone_number": ""
  },
  {
    "business_id": 6441,
    "name": "TACO BELL",
    "address": "6040 HULEN ST",
    "city": "FORT WORTH",
    "state": "TX",
    "postal_code": 76132,
    "latitude": 32.66109139,
    "longitude": -97.40191026,
    "phone_number": ""
  },
  {
    "business_id": 6507,
    "name": "TACO BELL",
    "address": "900 WEATHERFORD ST",
    "city": "FORT WORTH",
    "state": "TX",
    "postal_code": 76102,
    "latitude": 32.75423769,
    "longitude": -97.33903705,
    "phone_number": ""
  },
  {
    "business_id": 6804,
    "name": "TACO BELL",
    "address": "5340 BLUE MOUND RD",
    "city": "FORT WORTH",
    "state": "TX",
    "postal_code": 76106,
    "latitude": 32.83920125,
    "longitude": -97.34290444,
    "phone_number": ""
  },
  {
    "business_id": 10449,
    "name": "TACO BELL",
    "address": "10800 SOUTH FREEWAY",
    "city": "FORT WORTH",
    "state": "TX",
    "postal_code": 76140,
    "latitude": 32.59897095,
    "longitude": -97.31961165,
    "phone_number": ""
  },
  {
    "business_id": 8585,
    "name": "TACO BELL",
    "address": "6162 MEADOWBROOK DR",
    "city": "FORT WORTH",
    "state": "TX",
    "postal_code": 76112,
    "latitude": 32.74601826,
    "longitude": -97.22279687,
    "phone_number": ""
  },
  {
    "business_id": 11554,
    "name": "TACO BELL",
    "address": "4650 TARRANT PKWY",
    "city": "FORT WORTH",
    "state": "TX",
    "postal_code": 76244,
    "latitude": 32.89257519,
    "longitude": -97.28489371,
    "phone_number": ""
  },
  {
    "business_id": 7576,
    "name": "TACO BELL",
    "address": "2824 MAIN ST",
    "city": "FORT WORTH",
    "state": "TX",
    "postal_code": 76106,
    "latitude": 32.7958486,
    "longitude": -97.34922975,
    "phone_number": ""
  },
  {
    "business_id": 13066,
    "name": "TACO BELL",
    "address": "1221 OAKLAND BLVD",
    "city": "FORT WORTH",
    "state": "TX",
    "postal_code": 76103,
    "latitude": 32.7597729,
    "longitude": -97.26175376,
    "phone_number": ""
  },
  {
    "business_id": 10362,
    "name": "TACO BELL",
    "address": "1060 BEACH ST",
    "city": "FORT WORTH",
    "state": "TX",
    "postal_code": 76111,
    "latitude": 32.75474083,
    "longitude": -97.28925427,
    "phone_number": ""
  },
  {
    "business_id": 8517,
    "name": "TACO BELL",
    "address": "9616 WHITE SETTLEMENT RD",
    "city": "FORT WORTH",
    "state": "TX",
    "postal_code": 76108,
    "latitude": 32.76247798,
    "longitude": -97.48436466,
    "phone_number": ""
  },
  {
    "business_id": 11853,
    "name": "TACO BELL",
    "address": "3801 VALENTINE ST",
    "city": "FORT WORTH",
    "state": "TX",
    "postal_code": 76107,
    "latitude": 32.7319072,
    "longitude": -97.37295639,
    "phone_number": ""
  },
  {
    "business_id": 12404,
    "name": "TACO BELL",
    "address": "7200 NORTH FREEWAY",
    "city": "FORT WORTH",
    "state": "TX",
    "postal_code": 76137,
    "latitude": 32.87074535,
    "longitude": -97.31621608,
    "phone_number": ""
  },
  {
    "business_id": 7235,
    "name": "WENDYS",
    "address": "6440 NORTH FREEWAY",
    "city": "FORT WORTH",
    "state": "TX",
    "postal_code": 76137,
    "latitude": 32.85792581,
    "longitude": -97.31358949,
    "phone_number": ""
  },
  {
    "business_id": 7236,
    "name": "WENDYS",
    "address": "5350 BLUE MOUND RD",
    "city": "FORT WORTH",
    "state": "TX",
    "postal_code": 76106,
    "latitude": 32.83940806,
    "longitude": -97.34289137,
    "phone_number": ""
  },
  {
    "business_id": 1947,
    "name": "WENDYS",
    "address": "5900 CAMP BOWIE BLVD",
    "city": "FORT WORTH",
    "state": "TX",
    "postal_code": 76107,
    "latitude": 32.73048095,
    "longitude": -97.41162013,
    "phone_number": ""
  },
  {
    "business_id": 2050,
    "name": "WENDYS",
    "address": "221 SEMINARY DR",
    "city": "FORT WORTH",
    "state": "TX",
    "postal_code": 76115,
    "latitude": 32.68467676,
    "longitude": -97.32755704,
    "phone_number": ""
  },
  {
    "business_id": 1238,
    "name": "WENDYS",
    "address": "2926 7TH ST",
    "city": "FORT WORTH",
    "state": "TX",
    "postal_code": 76107,
    "latitude": 32.75119675,
    "longitude": -97.35887773,
    "phone_number": ""
  },
  {
    "business_id": 12406,
    "name": "WENDYS",
    "address": "2801 TARRANT PKWY",
    "city": "FORT WORTH",
    "state": "TX",
    "postal_code": 76177,
    "latitude": 32.89863255,
    "longitude": -97.31922528,
    "phone_number": ""
  },
  {
    "business_id": 815,
    "name": "WENDYS",
    "address": "963 BEACH ST",
    "city": "FORT WORTH",
    "state": "TX",
    "postal_code": 76111,
    "latitude": 32.75520812,
    "longitude": -97.28889921,
    "phone_number": ""
  },
  {
    "business_id": 12466,
    "name": "WENDYS",
    "address": "2801 BERRY ST",
    "city": "FORT WORTH",
    "state": "TX",
    "postal_code": 76105,
    "latitude": 32.71791756,
    "longitude": -97.23352981,
    "phone_number": ""
  },
  {
    "business_id": 6751,
    "name": "WENDYS",
    "address": "14160 TRINITY BLVD",
    "city": "FORT WORTH",
    "state": "TX",
    "postal_code": 76155,
    "latitude": 32.82226194,
    "longitude": -97.05884224,
    "phone_number": ""
  },
  {
    "business_id": 6470,
    "name": "WENDYS",
    "address": "1500 EASTCHASE PKWY",
    "city": "FORT WORTH",
    "state": "TX",
    "postal_code": 76120,
    "latitude": 32.75712977,
    "longitude": -97.16781932,
    "phone_number": ""
  },
  {
    "business_id": 6108,
    "name": "WENDYS",
    "address": "6250 OAKMONT BLVD",
    "city": "FORT WORTH",
    "state": "TX",
    "postal_code": 76132,
    "latitude": 32.66305792,
    "longitude": -97.40353069,
    "phone_number": ""
  },
  {
    "business_id": 8642,
    "name": "WENDYS",
    "address": "6716 BRIDGE ST",
    "city": "FORT WORTH",
    "state": "TX",
    "postal_code": 76112,
    "latitude": 32.76572741,
    "longitude": -97.21642887,
    "phone_number": ""
  },
  {
    "business_id": 19,
    "name": "WENDYS",
    "address": "2317 BERRY ST",
    "city": "FORT WORTH",
    "state": "TX",
    "postal_code": 76110,
    "latitude": 32.70598378,
    "longitude": -97.35148166,
    "phone_number": ""
  },
  {
    "business_id": 9614,
    "name": "WENDYS",
    "address": "3815 LOOP 820",
    "city": "FORT WORTH",
    "state": "TX",
    "postal_code": 76133,
    "latitude": 32.67240415,
    "longitude": -97.37588454,
    "phone_number": ""
  },
  {
    "business_id": 12416,
    "name": "WHATABURGER",
    "address": "2236 JACKSBORO HWY",
    "city": "FORT WORTH",
    "state": "TX",
    "postal_code": 76114,
    "latitude": 32.78356716,
    "longitude": -97.37870357,
    "phone_number": ""
  },
  {
    "business_id": 12543,
    "name": "WHATABURGER",
    "address": "13148 HIGHWAY 287 N",
    "city": "FORT WORTH",
    "state": "TX",
    "postal_code": 76052,
    "latitude": 32.96654703,
    "longitude": -97.4164573,
    "phone_number": ""
  },
  {
    "business_id": 12817,
    "name": "WHATABURGER",
    "address": "2209 TARRANT PKWY",
    "city": "FORT WORTH",
    "state": "TX",
    "postal_code": 76177,
    "latitude": 32.89862963,
    "longitude": -97.32709206,
    "phone_number": ""
  },
  {
    "business_id": 35,
    "name": "WHATABURGER",
    "address": "3313 CHERRY LN",
    "city": "FORT WORTH",
    "state": "TX",
    "postal_code": 76116,
    "latitude": 32.72470332,
    "longitude": -97.45086607,
    "phone_number": ""
  },
  {
    "business_id": 814,
    "name": "WHATABURGER",
    "address": "955 BEACH ST",
    "city": "FORT WORTH",
    "state": "TX",
    "postal_code": 76111,
    "latitude": 32.75524901,
    "longitude": -97.28887883,
    "phone_number": ""
  },
  {
    "business_id": 12242,
    "name": "WHATABURGER",
    "address": "125 SYCAMORE SCHOOL RD",
    "city": "FORT WORTH",
    "state": "TX",
    "postal_code": 76134,
    "latitude": 32.63511586,
    "longitude": -97.32241106,
    "phone_number": ""
  },
  {
    "business_id": 674,
    "name": "WHATABURGER",
    "address": "3501 ALTAMESA BLVD",
    "city": "FORT WORTH",
    "state": "TX",
    "postal_code": 76133,
    "latitude": 32.64959548,
    "longitude": -97.36787271,
    "phone_number": ""
  },
  {
    "business_id": 180,
    "name": "WHATABURGER",
    "address": "6469 BRENTWOOD STAIR RD",
    "city": "FORT WORTH",
    "state": "TX",
    "postal_code": 76112,
    "latitude": 32.75631228,
    "longitude": -97.21831079,
    "phone_number": ""
  },
  {
    "business_id": 3882,
    "name": "WHATABURGER",
    "address": "901 SEMINARY DR",
    "city": "FORT WORTH",
    "state": "TX",
    "postal_code": 76115,
    "latitude": 32.6848448,
    "longitude": -97.3343215,
    "phone_number": ""
  },
  {
    "business_id": 3588,
    "name": "WHATABURGER",
    "address": "109 28TH ST",
    "city": "FORT WORTH",
    "state": "TX",
    "postal_code": 76106,
    "latitude": 32.79517864,
    "longitude": -97.3492297,
    "phone_number": ""
  },
  {
    "business_id": 3838,
    "name": "WHATABURGER",
    "address": "3160 LOOP 820",
    "city": "FORT WORTH",
    "state": "TX",
    "postal_code": 76140,
    "latitude": 32.81911873,
    "longitude": -97.40181457,
    "phone_number": ""
  },
  {
    "business_id": 3730,
    "name": "WHATABURGER",
    "address": "6225 HULEN BEND BLVD",
    "city": "FORT WORTH",
    "state": "TX",
    "postal_code": 76132,
    "latitude": 32.66091649,
    "longitude": -97.40268154,
    "phone_number": ""
  },
  {
    "business_id": 3981,
    "name": "WHATABURGER",
    "address": "2401 BERRY ST",
    "city": "FORT WORTH",
    "state": "TX",
    "postal_code": 76110,
    "latitude": 32.70598973,
    "longitude": -97.35237827,
    "phone_number": ""
  },
  {
    "business_id": 5069,
    "name": "WHATABURGER",
    "address": "1425 EASTCHASE PKWY",
    "city": "FORT WORTH",
    "state": "TX",
    "postal_code": 76120,
    "latitude": 32.75893252,
    "longitude": -97.16708095,
    "phone_number": ""
  },
  {
    "business_id": 7131,
    "name": "WHATABURGER",
    "address": "5351 BEACH ST",
    "city": "FORT WORTH",
    "state": "TX",
    "postal_code": 76137,
    "latitude": 32.84029917,
    "longitude": -97.29063802,
    "phone_number": ""
  },
  {
    "business_id": 744,
    "name": "WHATABURGER",
    "address": "4051 LANCASTER AVE",
    "city": "FORT WORTH",
    "state": "TX",
    "postal_code": 76103,
    "latitude": 32.74103762,
    "longitude": -97.26514593,
    "phone_number": ""
  },
  {
    "business_id": 1042,
    "name": "WHATABURGER",
    "address": "2600 HEMPHILL ST",
    "city": "FORT WORTH",
    "state": "TX",
    "postal_code": 76110,
    "latitude": 32.71427492,
    "longitude": -97.33166458,
    "phone_number": ""
  },
  {
    "business_id": 9567,
    "name": "WHATABURGER",
    "address": "3000 WESTERN CENTER BLVD",
    "city": "FORT WORTH",
    "state": "TX",
    "postal_code": 76131,
    "latitude": 32.86101923,
    "longitude": -97.31712218,
    "phone_number": ""
  },
  {
    "business_id": 9926,
    "name": "WHATABURGER",
    "address": "9501 WHITE SETTLEMENT RD",
    "city": "FORT WORTH",
    "state": "TX",
    "postal_code": 76108,
    "latitude": 32.76111114,
    "longitude": -97.48217953,
    "phone_number": ""
  },
  {
    "business_id": 3967,
    "name": "WHATABURGER",
    "address": "3701 WEST FREEWAY",
    "city": "FORT WORTH",
    "state": "TX",
    "postal_code": 76106,
    "latitude": 32.73255034,
    "longitude": -97.37197996,
    "phone_number": ""
  },
  {
    "business_id": 5430,
    "name": "ANNIE'S HOT DOGS",
    "address": "POWELL & MARKET ST (S/E)",
    "city": "San Francisco",
    "state": "CA",
    "postal_code": 94102,
    "latitude": 37.779847,
    "longitude": -122.418985,
    "phone_number": 14158610778
  },
  {
    "business_id": 5434,
    "name": "ANNIE'S HOT DOGS",
    "address": "STOCKTON & O'FARRELL ST (N/W)",
    "city": "San Francisco",
    "state": "CA",
    "postal_code": 94102,
    "latitude": 37.779847,
    "longitude": -122.418985,
    "phone_number": 14158610778
  },
  {
    "business_id": 5441,
    "name": "ANNIE'S HOT DOGS",
    "address": "STOCKTON & MARKET & ELLIS ST (NW)",
    "city": "San Francisco",
    "state": "CA",
    "postal_code": 94102,
    "latitude": 37.779847,
    "longitude": -122.418985,
    "phone_number": 14158610778
  },
  {
    "business_id": 83843,
    "name": "ANNIE'S HOT DOGS",
    "address": "1330 25TH ST",
    "city": "San Francisco",
    "state": "CA",
    "postal_code": 94107,
    "latitude": "",
    "longitude": "",
    "phone_number": 14158610778
  },
  {
    "business_id": 60547,
    "name": "ANNIE'S HOT DOGS",
    "address": "GOLDEN GATE PARK, MUSIC CONCOURSE",
    "city": "San Francisco",
    "state": "CA",
    "postal_code": "",
    "latitude": 37.777122,
    "longitude": -122.419639,
    "phone_number": ""
  },
  {
    "business_id": 60548,
    "name": "ANNIE'S HOT DOGS",
    "address": "GOLDEN GATE PARK, JFK DR.@CONSERVATORY OF FLOWERS",
    "city": "San Francisco",
    "state": "CA",
    "postal_code": "",
    "latitude": 37.777122,
    "longitude": -122.419639,
    "phone_number": ""
  },
  {
    "business_id": 60549,
    "name": "ANNIE'S HOT DOGS",
    "address": "GOLDEN GATE PARK, SPRECKLES LAKE",
    "city": "San Francisco",
    "state": "CA",
    "postal_code": "",
    "latitude": 37.777122,
    "longitude": -122.419639,
    "phone_number": ""
  },
  {
    "business_id": 60550,
    "name": "ANNIE'S HOT DOGS",
    "address": "GOLDEN GATE PARK, JFK DR.@8TH AVE",
    "city": "San Francisco",
    "state": "CA",
    "postal_code": "",
    "latitude": 37.777122,
    "longitude": -122.419639,
    "phone_number": 14158610778
  },
  {
    "business_id": 60551,
    "name": "ANNIE'S HOT DOGS",
    "address": "GOLDEN GATE PARK, CAROUSEL SNACK BAR",
    "city": "San Francisco",
    "state": "CA",
    "postal_code": "",
    "latitude": 37.777122,
    "longitude": -122.419639,
    "phone_number": ""
  },
  {
    "business_id": 5463,
    "name": "AT&T Park",
    "address": "24 WILLIE MAYS PLAZA",
    "city": "San Francisco",
    "state": "CA",
    "postal_code": 94107,
    "latitude": "",
    "longitude": "",
    "phone_number": 14159721500
  },
  {
    "business_id": 5521,
    "name": "AT&T Park",
    "address": "24 WILLIE MAYS PL",
    "city": "San Francisco",
    "state": "CA",
    "postal_code": 94107,
    "latitude": "",
    "longitude": "",
    "phone_number": ""
  },
  {
    "business_id": 5467,
    "name": "AT&T Park",
    "address": "24 WILLIE MAYS PLAZA",
    "city": "San Francisco",
    "state": "CA",
    "postal_code": 94107,
    "latitude": "",
    "longitude": "",
    "phone_number": 14159721500
  },
  {
    "business_id": 5634,
    "name": "AT&T Park",
    "address": "24 WILLIE MAYS PLAZA 1.24.06",
    "city": "San Francisco",
    "state": "CA",
    "postal_code": 94107,
    "latitude": 37.778382,
    "longitude": -122.391151,
    "phone_number": 14159721500
  },
  {
    "business_id": 10377,
    "name": "AT&T Park",
    "address": "24 WILLIE MAYS PLAZA",
    "city": "San Francisco",
    "state": "CA",
    "postal_code": 94107,
    "latitude": "",
    "longitude": "",
    "phone_number": 14159024138
  },
  {
    "business_id": 11487,
    "name": "AT&T Park",
    "address": "24 WILLIE MAYS PL",
    "city": "San Francisco",
    "state": "CA",
    "postal_code": 94107,
    "latitude": "",
    "longitude": "",
    "phone_number": 14154743938
  },
  {
    "business_id": 11488,
    "name": "AT&T Park",
    "address": "24 WILLIE MAYS PL",
    "city": "San Francisco",
    "state": "CA",
    "postal_code": 94107,
    "latitude": "",
    "longitude": "",
    "phone_number": 14154743938
  },
  {
    "business_id": 5544,
    "name": "AT&T Park",
    "address": "24 WILLIE MAYS PLAZA",
    "city": "San Francisco",
    "state": "CA",
    "postal_code": 94107,
    "latitude": "",
    "longitude": "",
    "phone_number": ""
  },
  {
    "business_id": 5528,
    "name": "AT&T Park",
    "address": "24 WILLIE MAYS PLAZA",
    "city": "San Francisco",
    "state": "CA",
    "postal_code": 94107,
    "latitude": "",
    "longitude": "",
    "phone_number": 14152520502
  },
  {
    "business_id": 5619,
    "name": "AT&T Park",
    "address": "24 WILLIE MAYS PLAZA 4.21.02",
    "city": "San Francisco",
    "state": "CA",
    "postal_code": 94107,
    "latitude": 37.778382,
    "longitude": -122.391151,
    "phone_number": 14159721500
  },
  {
    "business_id": 5475,
    "name": "AT&T Park",
    "address": "24 WILLIE MAYS PLAZA",
    "city": "San Francisco",
    "state": "CA",
    "postal_code": 94107,
    "latitude": "",
    "longitude": "",
    "phone_number": 14159721500
  },
  {
    "business_id": 76223,
    "name": "AT&T Park",
    "address": "24 WILLIE MAYS PLAZA",
    "city": "San Francisco",
    "state": "CA",
    "postal_code": 94107,
    "latitude": "",
    "longitude": "",
    "phone_number": 14153710727
  },
  {
    "business_id": 74336,
    "name": "AT&T Park",
    "address": "24 WILLIE MAYS PLAZA",
    "city": "San Francisco",
    "state": "CA",
    "postal_code": 94107,
    "latitude": "",
    "longitude": "",
    "phone_number": 14159721500
  },
  {
    "business_id": 5524,
    "name": "AT&T Park",
    "address": "24 WILLIE MAYS PLAZA",
    "city": "San Francisco",
    "state": "CA",
    "postal_code": 94107,
    "latitude": "",
    "longitude": "",
    "phone_number": ""
  },
  {
    "business_id": 5523,
    "name": "AT&T Park",
    "address": "24 WILLIE MAYS PLAZA",
    "city": "San Francisco",
    "state": "CA",
    "postal_code": 94107,
    "latitude": "",
    "longitude": "",
    "phone_number": ""
  },
  {
    "business_id": 90989,
    "name": "AT&T Park",
    "address": "24 WILLIE MAYS PLAZA",
    "city": "San Francisco",
    "state": "CA",
    "postal_code": 94107,
    "latitude": "",
    "longitude": "",
    "phone_number": 14157546640
  },
  {
    "business_id": 90990,
    "name": "AT&T Park",
    "address": "24 WILLIE MAYS PLAZA",
    "city": "San Francisco",
    "state": "CA",
    "postal_code": 94107,
    "latitude": "",
    "longitude": "",
    "phone_number": 14157546640
  },
  {
    "business_id": 90991,
    "name": "AT&T Park",
    "address": "24 WILLIE MAYS PLAZA",
    "city": "San Francisco",
    "state": "CA",
    "postal_code": 94107,
    "latitude": "",
    "longitude": "",
    "phone_number": 14157546640
  },
  {
    "business_id": 79006,
    "name": "AT&T Park",
    "address": "24 WILLIE MAYS PLAZA",
    "city": "San Francisco",
    "state": "CA",
    "postal_code": 94107,
    "latitude": "",
    "longitude": "",
    "phone_number": 14159721500
  },
  {
    "business_id": 79010,
    "name": "AT&T Park",
    "address": "24 WILLIE MAYS PLAZA",
    "city": "San Francisco",
    "state": "CA",
    "postal_code": 94107,
    "latitude": "",
    "longitude": "",
    "phone_number": 14159721500
  },
  {
    "business_id": 78368,
    "name": "AT&T Park",
    "address": "24 WILLIE MAYS PLAZA",
    "city": "San Francisco",
    "state": "CA",
    "postal_code": 94107,
    "latitude": "",
    "longitude": "",
    "phone_number": 14159721500
  },
  {
    "business_id": 76233,
    "name": "AT&T Park",
    "address": "24 WILLIE MAYS PLAZA",
    "city": "San Francisco",
    "state": "CA",
    "postal_code": 94107,
    "latitude": "",
    "longitude": "",
    "phone_number": 14153710727
  },
  {
    "business_id": 74327,
    "name": "AT&T Park",
    "address": "24 WILLIE MAYS PLAZA",
    "city": "San Francisco",
    "state": "CA",
    "postal_code": 94107,
    "latitude": "",
    "longitude": "",
    "phone_number": 14159521500
  },
  {
    "business_id": 36494,
    "name": "BLUE BOTTLE COFFEE",
    "address": "66 MINT ST",
    "city": "San Francisco",
    "state": "CA",
    "postal_code": 94103,
    "latitude": 37.782368,
    "longitude": -122.40743,
    "phone_number": 14154182312
  },
  {
    "business_id": 80974,
    "name": "BLUE BOTTLE COFFEE",
    "address": "1 MINT PLAZA",
    "city": "San Francisco",
    "state": "CA",
    "postal_code": 94103,
    "latitude": "",
    "longitude": "",
    "phone_number": 14152200022
  },
  {
    "business_id": 82429,
    "name": "BLUE BOTTLE COFFEE",
    "address": "1355 MARKET ST",
    "city": "San Francisco",
    "state": "CA",
    "postal_code": 94103,
    "latitude": "",
    "longitude": "",
    "phone_number": 14154357350
  },
  {
    "business_id": 82930,
    "name": "BLUE BOTTLE COFFEE",
    "address": "115 SANSOME ST",
    "city": "San Francisco",
    "state": "CA",
    "postal_code": 94104,
    "latitude": "",
    "longitude": "",
    "phone_number": 14154357350
  },
  {
    "business_id": 85051,
    "name": "BLUE BOTTLE COFFEE",
    "address": "1 FERRY BUILDING  KIOSK #56",
    "city": "San Francisco",
    "state": "CA",
    "postal_code": 94111,
    "latitude": "",
    "longitude": "",
    "phone_number": 14156533394
  },
  {
    "business_id": 89569,
    "name": "BLUE BOTTLE COFFEE",
    "address": "2 SOUTH PARK",
    "city": "San Francisco",
    "state": "CA",
    "postal_code": 94107,
    "latitude": "",
    "longitude": "",
    "phone_number": 14153503600
  },
  {
    "business_id": 90281,
    "name": "BLUE BOTTLE COFFEE",
    "address": "1 FERRY BUILDING  #7",
    "city": "San Francisco",
    "state": "CA",
    "postal_code": 94111,
    "latitude": "",
    "longitude": "",
    "phone_number": ""
  },
  {
    "business_id": 90893,
    "name": "BLUE BOTTLE COFFEE",
    "address": "2453 FILLMORE ST.",
    "city": "San Francisco",
    "state": "CA",
    "postal_code": 94115,
    "latitude": "",
    "longitude": "",
    "phone_number": 14153503600
  },
  {
    "business_id": 92508,
    "name": "BLUE BOTTLE COFFEE",
    "address": "600 CALIFORNIA ST",
    "city": "San Francisco",
    "state": "CA",
    "postal_code": 94109,
    "latitude": "",
    "longitude": "",
    "phone_number": 14152770471
  },
  {
    "business_id": 14075,
    "name": "BLUE BOTTLE COFFEE",
    "address": "315 LINDEN ST",
    "city": "San Francisco",
    "state": "CA",
    "postal_code": 94102,
    "latitude": 37.77634,
    "longitude": -122.423099,
    "phone_number": 14156533394
  },
  {
    "business_id": 81,
    "name": "BON APPETIT",
    "address": "2350 TURK BLVD",
    "city": "San Francisco",
    "state": "CA",
    "postal_code": 94117,
    "latitude": 37.778468,
    "longitude": -122.448484,
    "phone_number": 14153064802
  },
  {
    "business_id": 81356,
    "name": "BON APPETIT",
    "address": "1455 MARKET ST 11TH FLOOR",
    "city": "San Francisco",
    "state": "CA",
    "postal_code": 94103,
    "latitude": "",
    "longitude": "",
    "phone_number": 14156102862
  },
  {
    "business_id": 68431,
    "name": "BON APPETIT",
    "address": "601 TOWNSEND STREET",
    "city": "San Francisco",
    "state": "CA",
    "postal_code": 94107,
    "latitude": 37.771742,
    "longitude": -122.401677,
    "phone_number": 14157988000
  },
  {
    "business_id": 94121,
    "name": "BON APPETIT",
    "address": "888 BRANNAN ST  1ST FL",
    "city": "San Francisco",
    "state": "CA",
    "postal_code": 94103,
    "latitude": "",
    "longitude": "",
    "phone_number": 14158281630
  },
  {
    "business_id": 94123,
    "name": "BON APPETIT",
    "address": "999 BRANNAN ST",
    "city": "San Francisco",
    "state": "CA",
    "postal_code": "",
    "latitude": "",
    "longitude": "",
    "phone_number": ""
  },
  {
    "business_id": 95853,
    "name": "BON APPETIT",
    "address": "650 07TH ST",
    "city": "San Francisco",
    "state": "CA",
    "postal_code": 94103,
    "latitude": "",
    "longitude": "",
    "phone_number": 14158927674
  },
  {
    "business_id": 86925,
    "name": "BON APPETIT",
    "address": "222 2ND ST 17TH FLOOR",
    "city": "San Francisco",
    "state": "CA",
    "postal_code": 94105,
    "latitude": "",
    "longitude": "",
    "phone_number": 14153398323
  },
  {
    "business_id": 85945,
    "name": "BON APPETIT",
    "address": "222 02ND ST 3RD FLOOR",
    "city": "San Francisco",
    "state": "CA",
    "postal_code": 94105,
    "latitude": "",
    "longitude": "",
    "phone_number": 14157988010
  },
  {
    "business_id": 69249,
    "name": "BON APPETIT",
    "address": "1355 MARKET ST 9TH FL.",
    "city": "San Francisco",
    "state": "CA",
    "postal_code": 94103,
    "latitude": 37.777168,
    "longitude": -122.416702,
    "phone_number": 14157107203
  },
  {
    "business_id": 75277,
    "name": "BON APPETIT",
    "address": "1355 MARKET ST 10/F.",
    "city": "San Francisco",
    "state": "CA",
    "postal_code": 94103,
    "latitude": "",
    "longitude": "",
    "phone_number": 14157716376
  },
  {
    "business_id": 79193,
    "name": "BON APPETIT",
    "address": "1355 MARKET ST 5TH FLOOR",
    "city": "San Francisco",
    "state": "CA",
    "postal_code": 94103,
    "latitude": "",
    "longitude": "",
    "phone_number": 14157988000
  },
  {
    "business_id": 82715,
    "name": "BON APPETIT",
    "address": "875 STEVENSON ST 2ND FLOOR",
    "city": "San Francisco",
    "state": "CA",
    "postal_code": 94103,
    "latitude": "",
    "longitude": "",
    "phone_number": 14157988000
  },
  {
    "business_id": 82718,
    "name": "BON APPETIT",
    "address": "875 STEVENSON ST 9TH FLOOR",
    "city": "San Francisco",
    "state": "CA",
    "postal_code": 94103,
    "latitude": "",
    "longitude": "",
    "phone_number": 14157988000
  },
  {
    "business_id": 82721,
    "name": "BON APPETIT",
    "address": "875 STEVENSON ST 10TH FLOOR",
    "city": "San Francisco",
    "state": "CA",
    "postal_code": 94103,
    "latitude": "",
    "longitude": "",
    "phone_number": 14157988000
  },
  {
    "business_id": 10362,
    "name": "BON APPETIT",
    "address": "2130 FULTON ST",
    "city": "San Francisco",
    "state": "CA",
    "postal_code": 94117,
    "latitude": 37.775117,
    "longitude": -122.452065,
    "phone_number": 14153604802
  },
  {
    "business_id": 80,
    "name": "BON APPETIT",
    "address": "2199 FULTON ST",
    "city": "San Francisco",
    "state": "CA",
    "postal_code": 94117,
    "latitude": 37.774941,
    "longitude": -122.452797,
    "phone_number": 14154222268
  },
  {
    "business_id": 2907,
    "name": "BON APPETIT",
    "address": "2130 FULTON ST",
    "city": "San Francisco",
    "state": "CA",
    "postal_code": 94117,
    "latitude": 37.775117,
    "longitude": -122.452065,
    "phone_number": 14154225849
  },
  {
    "business_id": 85091,
    "name": "BON APPETIT",
    "address": "3250 VAN NESS AVE",
    "city": "San Francisco",
    "state": "CA",
    "postal_code": 94109,
    "latitude": "",
    "longitude": "",
    "phone_number": 14156102862
  },
  {
    "business_id": 22177,
    "name": "BON APPETIT",
    "address": "2800 TURK BLVD",
    "city": "San Francisco",
    "state": "CA",
    "postal_code": 94117,
    "latitude": 37.778106,
    "longitude": -122.451533,
    "phone_number": 14153604802
  },
  {
    "business_id": 81670,
    "name": "BON APPETIT",
    "address": "685 MARKET ST 8TH FLOOR",
    "city": "San Francisco",
    "state": "CA",
    "postal_code": 94105,
    "latitude": "",
    "longitude": "",
    "phone_number": 14156102862
  },
  {
    "business_id": 84339,
    "name": "BON APPETIT",
    "address": "1455 MARKET ST 5TH FLOOR",
    "city": "San Francisco",
    "state": "CA",
    "postal_code": 94103,
    "latitude": "",
    "longitude": "",
    "phone_number": 14158130229
  },
  {
    "business_id": 84340,
    "name": "BON APPETIT",
    "address": "685 MARKET ST 4TH FLOOR",
    "city": "San Francisco",
    "state": "CA",
    "postal_code": 94105,
    "latitude": "",
    "longitude": "",
    "phone_number": 14158130229
  },
  {
    "business_id": 85680,
    "name": "BON APPETIT",
    "address": "555 MARKET ST 2ND FLOOR",
    "city": "San Francisco",
    "state": "CA",
    "postal_code": 94105,
    "latitude": "",
    "longitude": "",
    "phone_number": 14158130229
  },
  {
    "business_id": 85682,
    "name": "BON APPETIT",
    "address": "555 MARKET ST 6TH FLOOR",
    "city": "San Francisco",
    "state": "CA",
    "postal_code": 94105,
    "latitude": "",
    "longitude": "",
    "phone_number": 14158130229
  },
  {
    "business_id": 81357,
    "name": "BON APPETIT",
    "address": "685 MARKET ST 520",
    "city": "San Francisco",
    "state": "CA",
    "postal_code": "",
    "latitude": "",
    "longitude": "",
    "phone_number": 14156102862
  },
  {
    "business_id": 76142,
    "name": "BON APPETIT",
    "address": "555 CALIFORNIA ST 51ST FLOOR",
    "city": "San Francisco",
    "state": "CA",
    "postal_code": 94104,
    "latitude": "",
    "longitude": "",
    "phone_number": 14157488671
  },
  {
    "business_id": 87469,
    "name": "BON APPETIT",
    "address": "1455 MARKET ST 4TH FL",
    "city": "San Francisco",
    "state": "CA",
    "postal_code": 94103,
    "latitude": "",
    "longitude": "",
    "phone_number": 14158184667
  },
  {
    "business_id": 80279,
    "name": "BON APPETIT",
    "address": "350 RHODE ISLAND ST 150",
    "city": "San Francisco",
    "state": "CA",
    "postal_code": 94107,
    "latitude": "",
    "longitude": "",
    "phone_number": 14157988000
  },
  {
    "business_id": 87793,
    "name": "BON APPETIT",
    "address": "1455 MARKET ST    LOWER LEVEL KITCHEN, GR. FLOOR",
    "city": "San Francisco",
    "state": "CA",
    "postal_code": 94103,
    "latitude": "",
    "longitude": "",
    "phone_number": 14158184997
  },
  {
    "business_id": 90001,
    "name": "BON APPETIT",
    "address": "110 05TH ST SUITE 200",
    "city": "San Francisco",
    "state": "CA",
    "postal_code": 94103,
    "latitude": "",
    "longitude": "",
    "phone_number": 14158281630
  },
  {
    "business_id": 3032,
    "name": "CHIPOTLE MEXICAN GRILL",
    "address": "126 NEW MONTGOMERY ST",
    "city": "San Francisco",
    "state": "CA",
    "postal_code": 94105,
    "latitude": 37.787227,
    "longitude": -122.400269,
    "phone_number": 14155128113
  },
  {
    "business_id": 66687,
    "name": "CHIPOTLE MEXICAN GRILL",
    "address": "1523 SLOAT BLVD",
    "city": "San Francisco",
    "state": "CA",
    "postal_code": 94132,
    "latitude": 37.733944,
    "longitude": -122.490438,
    "phone_number": 14153765392
  },
  {
    "business_id": 83365,
    "name": "CHIPOTLE MEXICAN GRILL",
    "address": "2675 GEARY BLVD",
    "city": "San Francisco",
    "state": "CA",
    "postal_code": 94118,
    "latitude": "",
    "longitude": "",
    "phone_number": 14155954000
  },
  {
    "business_id": 33945,
    "name": "CHIPOTLE MEXICAN GRILL",
    "address": "525 MARKET ST 1ST FLOOR",
    "city": "San Francisco",
    "state": "CA",
    "postal_code": 94105,
    "latitude": 37.790697,
    "longitude": -122.399563,
    "phone_number": 14155954000
  },
  {
    "business_id": 62674,
    "name": "CHIPOTLE MEXICAN GRILL",
    "address": "232 O'FARRELL ST",
    "city": "San Francisco",
    "state": "CA",
    "postal_code": 94102,
    "latitude": 37.786387,
    "longitude": -122.408605,
    "phone_number": 14152225994
  },
  {
    "business_id": 69350,
    "name": "CHIPOTLE MEXICAN GRILL",
    "address": "121 04TH ST SPACE #1035",
    "city": "San Francisco",
    "state": "CA",
    "postal_code": 94103,
    "latitude": 37.784283,
    "longitude": -122.403881,
    "phone_number": 14153765392
  },
  {
    "business_id": 67187,
    "name": "CHIPOTLE MEXICAN GRILL",
    "address": "333 JEFFERSON ST #104",
    "city": "San Francisco",
    "state": "CA",
    "postal_code": 94133,
    "latitude": 37.807923,
    "longitude": -122.417887,
    "phone_number": 14155003533
  },
  {
    "business_id": 69006,
    "name": "CHIPOTLE MEXICAN GRILL",
    "address": "50 CALIFORNIA ST",
    "city": "San Francisco",
    "state": "CA",
    "postal_code": 94111,
    "latitude": "",
    "longitude": "",
    "phone_number": ""
  },
  {
    "business_id": 67602,
    "name": "CHIPOTLE MEXICAN GRILL",
    "address": "865 MARKET ST SPACE #C10",
    "city": "San Francisco",
    "state": "CA",
    "postal_code": 94103,
    "latitude": 37.784317,
    "longitude": -122.407563,
    "phone_number": 14153765392
  },
  {
    "business_id": 69895,
    "name": "CHIPOTLE MEXICAN GRILL",
    "address": "211 SUTTER ST",
    "city": "San Francisco",
    "state": "CA",
    "postal_code": 94104,
    "latitude": "",
    "longitude": "",
    "phone_number": ""
  },
  {
    "business_id": 75078,
    "name": "CHIPOTLE MEXICAN GRILL",
    "address": "3251 20TH AVE OP183",
    "city": "San Francisco",
    "state": "CA",
    "postal_code": 94110,
    "latitude": "",
    "longitude": "",
    "phone_number": 14154183048
  },
  {
    "business_id": 88723,
    "name": "CHIPOTLE MEXICAN GRILL",
    "address": "400 HOWARD ST, SUITE 110",
    "city": "San Francisco",
    "state": "CA",
    "postal_code": 94105,
    "latitude": "",
    "longitude": "",
    "phone_number": 14152222524
  },
  {
    "business_id": 89995,
    "name": "HUMMUS HEAVEN",
    "address": "1310 09TH AVE",
    "city": "San Francisco",
    "state": "CA",
    "postal_code": 94122,
    "latitude": "",
    "longitude": "",
    "phone_number": 14153924635
  },
  {
    "business_id": 89996,
    "name": "HUMMUS HEAVEN",
    "address": "505 GENE FRIEND WAY",
    "city": "San Francisco",
    "state": "CA",
    "postal_code": 94158,
    "latitude": "",
    "longitude": "",
    "phone_number": 14153724635
  },
  {
    "business_id": 89997,
    "name": "HUMMUS HEAVEN",
    "address": "50 FREMONT ST",
    "city": "San Francisco",
    "state": "CA",
    "postal_code": 94105,
    "latitude": "",
    "longitude": "",
    "phone_number": 14153924635
  },
  {
    "business_id": 93892,
    "name": "HUMMUS HEAVEN",
    "address": "1700 O'FARRELL ST",
    "city": "San Francisco",
    "state": "CA",
    "postal_code": 94115,
    "latitude": "",
    "longitude": "",
    "phone_number": 14153924635
  },
  {
    "business_id": 95673,
    "name": "HUMMUS HEAVEN",
    "address": "84 BARLETT ST",
    "city": "San Francisco",
    "state": "CA",
    "postal_code": 94110,
    "latitude": "",
    "longitude": "",
    "phone_number": 14153924635
  },
  {
    "business_id": 3420,
    "name": "MCDONALDS",
    "address": "345 BAYSHORE BLVD",
    "city": "San Francisco",
    "state": "CA",
    "postal_code": 94124,
    "latitude": 37.742331,
    "longitude": -122.405736,
    "phone_number": 14158212565
  },
  {
    "business_id": 5156,
    "name": "MCDONALDS",
    "address": "302 POTRERO AVE",
    "city": "San Francisco",
    "state": "CA",
    "postal_code": 94110,
    "latitude": 37.765507,
    "longitude": -122.407565,
    "phone_number": 14158613295
  },
  {
    "business_id": 88498,
    "name": "MCDONALDS",
    "address": "441 SUTTER ST",
    "city": "San Francisco",
    "state": "CA",
    "postal_code": 94108,
    "latitude": "",
    "longitude": "",
    "phone_number": 14152513309
  },
  {
    "business_id": 88499,
    "name": "MCDONALDS",
    "address": "235 FRONT ST",
    "city": "San Francisco",
    "state": "CA",
    "postal_code": "",
    "latitude": "",
    "longitude": "",
    "phone_number": 14152513309
  },
  {
    "business_id": 88505,
    "name": "MCDONALDS",
    "address": "5411 3RD ST",
    "city": "San Francisco",
    "state": "CA",
    "postal_code": 94124,
    "latitude": "",
    "longitude": "",
    "phone_number": 14152513309
  },
  {
    "business_id": 88508,
    "name": "MCDONALDS",
    "address": "5454 MISSION ST",
    "city": "San Francisco",
    "state": "CA",
    "postal_code": 94112,
    "latitude": "",
    "longitude": "",
    "phone_number": 14157603172
  },
  {
    "business_id": 88524,
    "name": "MCDONALDS",
    "address": "255 WINSTON ST",
    "city": "San Francisco",
    "state": "CA",
    "postal_code": "",
    "latitude": "",
    "longitude": "",
    "phone_number": 14152513309
  },
  {
    "business_id": 88525,
    "name": "MCDONALDS",
    "address": "2805 MISSION ST",
    "city": "San Francisco",
    "state": "CA",
    "postal_code": 94110,
    "latitude": "",
    "longitude": "",
    "phone_number": 14152513309
  },
  {
    "business_id": 90378,
    "name": "MCDONALDS",
    "address": "145 JEFFERSON ST",
    "city": "San Francisco",
    "state": "CA",
    "postal_code": 94133,
    "latitude": "",
    "longitude": "",
    "phone_number": 14152926684
  },
  {
    "business_id": 90409,
    "name": "MCDONALDS",
    "address": "1201 OCEAN AVE",
    "city": "San Francisco",
    "state": "CA",
    "postal_code": 94112,
    "latitude": "",
    "longitude": "",
    "phone_number": 14154528819
  },
  {
    "business_id": 90427,
    "name": "MCDONALDS",
    "address": "1100 FILLMORE ST.",
    "city": "San Francisco",
    "state": "CA",
    "postal_code": 94115,
    "latitude": "",
    "longitude": "",
    "phone_number": 14159231138
  },
  {
    "business_id": 90428,
    "name": "MCDONALDS",
    "address": "609 MARKET ST.",
    "city": "San Francisco",
    "state": "CA",
    "postal_code": 94105,
    "latitude": "",
    "longitude": "",
    "phone_number": 14155432595
  },
  {
    "business_id": 1487,
    "name": "PEET'S COFFEE & TEA",
    "address": "101 02ND ST 150",
    "city": "San Francisco",
    "state": "CA",
    "postal_code": 94105,
    "latitude": 37.787834,
    "longitude": -122.399522,
    "phone_number": 14154954323
  },
  {
    "business_id": 1493,
    "name": "PEET'S COFFEE & TEA",
    "address": "1 FERRY BUILDING  C3",
    "city": "San Francisco",
    "state": "CA",
    "postal_code": 94111,
    "latitude": 37.795184,
    "longitude": -122.393819,
    "phone_number": 14155942100
  },
  {
    "business_id": 2077,
    "name": "PEET'S COFFEE & TEA",
    "address": "2139C POLK ST",
    "city": "San Francisco",
    "state": "CA",
    "postal_code": 94109,
    "latitude": 37.796316,
    "longitude": -122.421909,
    "phone_number": 14154741871
  },
  {
    "business_id": 2535,
    "name": "PEET'S COFFEE & TEA",
    "address": "2197 FILLMORE ST",
    "city": "San Francisco",
    "state": "CA",
    "postal_code": 94115,
    "latitude": 37.789787,
    "longitude": -122.434067,
    "phone_number": 14155639930
  },
  {
    "business_id": 4539,
    "name": "PEET'S COFFEE & TEA",
    "address": "054 WEST PORTAL AVE",
    "city": "San Francisco",
    "state": "CA",
    "postal_code": 94127,
    "latitude": 37.740283,
    "longitude": -122.466459,
    "phone_number": 14157310375
  },
  {
    "business_id": 5000,
    "name": "PEET'S COFFEE & TEA",
    "address": "2257 MARKET ST",
    "city": "San Francisco",
    "state": "CA",
    "postal_code": 94114,
    "latitude": 37.764947,
    "longitude": -122.432012,
    "phone_number": 14156266416
  },
  {
    "business_id": 5019,
    "name": "PEET'S COFFEE & TEA",
    "address": "2300 16TH ST #240",
    "city": "San Francisco",
    "state": "CA",
    "postal_code": 94103,
    "latitude": 37.765708,
    "longitude": -122.409002,
    "phone_number": 14155656713
  },
  {
    "business_id": 15752,
    "name": "PEET'S COFFEE & TEA",
    "address": "2  EMBARCADERO CENTER  #R2113",
    "city": "San Francisco",
    "state": "CA",
    "postal_code": 94111,
    "latitude": 37.794818,
    "longitude": -122.398474,
    "phone_number": 14158691744
  },
  {
    "business_id": 17822,
    "name": "PEET'S COFFEE & TEA",
    "address": "601 VAN NESS AVE SUITE A",
    "city": "San Francisco",
    "state": "CA",
    "postal_code": 94102,
    "latitude": 37.781454,
    "longitude": -122.420644,
    "phone_number": 14155942100
  },
  {
    "business_id": 24431,
    "name": "PEET'S COFFEE & TEA",
    "address": "680 MISSION ST",
    "city": "San Francisco",
    "state": "CA",
    "postal_code": 94103,
    "latitude": 37.786584,
    "longitude": -122.401639,
    "phone_number": 14155938945
  },
  {
    "business_id": 29312,
    "name": "PEET'S COFFEE & TEA",
    "address": "310 BRODERICK ST",
    "city": "San Francisco",
    "state": "CA",
    "postal_code": 94117,
    "latitude": 37.773348,
    "longitude": -122.439147,
    "phone_number": 14155938830
  },
  {
    "business_id": 32578,
    "name": "PEET'S COFFEE & TEA",
    "address": "1 CALIFORNIA ST",
    "city": "San Francisco",
    "state": "CA",
    "postal_code": 94111,
    "latitude": 37.793614,
    "longitude": -122.396517,
    "phone_number": 14152350730
  },
  {
    "business_id": 32579,
    "name": "PEET'S COFFEE & TEA",
    "address": "5201 GEARY BLVD",
    "city": "San Francisco",
    "state": "CA",
    "postal_code": 94118,
    "latitude": 37.780443,
    "longitude": -122.475259,
    "phone_number": 14155942100
  },
  {
    "business_id": 32823,
    "name": "PEET'S COFFEE & TEA",
    "address": "405 HOWARD ST",
    "city": "San Francisco",
    "state": "CA",
    "postal_code": 94104,
    "latitude": 37.789057,
    "longitude": -122.395322,
    "phone_number": 14155942100
  },
  {
    "business_id": 37688,
    "name": "PEET'S COFFEE & TEA",
    "address": "370 04TH ST",
    "city": "San Francisco",
    "state": "CA",
    "postal_code": 94107,
    "latitude": 37.781127,
    "longitude": -122.400109,
    "phone_number": 14155930814
  },
  {
    "business_id": 39025,
    "name": "PEET'S COFFEE & TEA",
    "address": "450 SANSOME ST SUITE #1",
    "city": "San Francisco",
    "state": "CA",
    "postal_code": 94111,
    "latitude": 37.794617,
    "longitude": -122.401316,
    "phone_number": ""
  },
  {
    "business_id": 39665,
    "name": "PEET'S COFFEE & TEA",
    "address": "1400 VAN NESS AVE",
    "city": "San Francisco",
    "state": "CA",
    "postal_code": 94109,
    "latitude": 37.788668,
    "longitude": -122.421917,
    "phone_number": 14152307822
  },
  {
    "business_id": 39667,
    "name": "PEET'S COFFEE & TEA",
    "address": "595 MARKET ST  SUITE #143",
    "city": "San Francisco",
    "state": "CA",
    "postal_code": 94105,
    "latitude": 37.789437,
    "longitude": -122.401111,
    "phone_number": 14155942100
  },
  {
    "business_id": 70425,
    "name": "PEET'S COFFEE & TEA",
    "address": "1509 SLOAT BLVD",
    "city": "San Francisco",
    "state": "CA",
    "postal_code": 94132,
    "latitude": "",
    "longitude": "",
    "phone_number": 14155942100
  },
  {
    "business_id": 75173,
    "name": "PEET'S COFFEE & TEA",
    "address": "919 COLE ST",
    "city": "San Francisco",
    "state": "CA",
    "postal_code": 94117,
    "latitude": "",
    "longitude": "",
    "phone_number": 14155942100
  },
  {
    "business_id": 77580,
    "name": "PEET'S COFFEE & TEA",
    "address": "2080 CHESTNUT ST",
    "city": "San Francisco",
    "state": "CA",
    "postal_code": 94123,
    "latitude": "",
    "longitude": "",
    "phone_number": 14156352393
  },
  {
    "business_id": 79970,
    "name": "PEET'S COFFEE & TEA",
    "address": "101 POST ST",
    "city": "San Francisco",
    "state": "CA",
    "postal_code": 94108,
    "latitude": "",
    "longitude": "",
    "phone_number": 14155943281
  },
  {
    "business_id": 86354,
    "name": "PEET'S COFFEE & TEA",
    "address": "773 MARKET ST",
    "city": "San Francisco",
    "state": "CA",
    "postal_code": 94102,
    "latitude": "",
    "longitude": "",
    "phone_number": 14153168683
  },
  {
    "business_id": 86780,
    "name": "PEET'S COFFEE & TEA",
    "address": "121 SPEAR ST",
    "city": "San Francisco",
    "state": "CA",
    "postal_code": 94105,
    "latitude": "",
    "longitude": "",
    "phone_number": 14158658663
  },
  {
    "business_id": 86781,
    "name": "PEET'S COFFEE & TEA",
    "address": "1400 MISSION ST SUITE 130",
    "city": "San Francisco",
    "state": "CA",
    "postal_code": 94103,
    "latitude": "",
    "longitude": "",
    "phone_number": 14158658663
  },
  {
    "business_id": 1125,
    "name": "PEET'S COFFEE & TEA",
    "address": "022 BATTERY ST",
    "city": "San Francisco",
    "state": "CA",
    "postal_code": 94111,
    "latitude": 37.791554,
    "longitude": -122.399565,
    "phone_number": 14159814550
  },
  {
    "business_id": 84811,
    "name": "PEET'S COFFEE & TEA",
    "address": "APPROVED PRIVATE LOCATIONS",
    "city": "San Francisco",
    "state": "CA",
    "postal_code": 94102,
    "latitude": "",
    "longitude": "",
    "phone_number": 14154326067
  },
  {
    "business_id": 35882,
    "name": "PEET'S COFFEE & TEA",
    "address": "555 09TH ST STE B5",
    "city": "San Francisco",
    "state": "CA",
    "postal_code": 94103,
    "latitude": 37.774722,
    "longitude": -122.406761,
    "phone_number": 14156903115
  },
  {
    "business_id": 68944,
    "name": "PEET'S COFFEE & TEA",
    "address": "1630 HOLLOWAY AVE",
    "city": "San Francisco",
    "state": "CA",
    "postal_code": 94132,
    "latitude": 37.720877,
    "longitude": -122.477651,
    "phone_number": 14153774525
  },
  {
    "business_id": 72159,
    "name": "PEET'S COFFEE & TEA",
    "address": "3251 20TH AVE P182",
    "city": "San Francisco",
    "state": "CA",
    "postal_code": 94132,
    "latitude": "",
    "longitude": "",
    "phone_number": 14152138380
  },
  {
    "business_id": 91189,
    "name": "PEET'S COFFEE & TEA",
    "address": "155 MONTGOMERY ST",
    "city": "San Francisco",
    "state": "CA",
    "postal_code": 94104,
    "latitude": "",
    "longitude": "",
    "phone_number": ""
  },
  {
    "business_id": 96300,
    "name": "PEET'S COFFEE & TEA",
    "address": "855 BRANNAN ST",
    "city": "San Francisco",
    "state": "CA",
    "postal_code": 94103,
    "latitude": "",
    "longitude": "",
    "phone_number": 14153568390
  },
  {
    "business_id": 12285,
    "name": "PEET'S COFFEE & TEA",
    "address": "1580 VALENCIA ST",
    "city": "San Francisco",
    "state": "CA",
    "postal_code": 94110,
    "latitude": 37.748118,
    "longitude": -122.420474,
    "phone_number": 14156416596
  },
  {
    "business_id": 1193,
    "name": "PEET'S COFFEE & TEA",
    "address": "3419 CALIFORNIA ST",
    "city": "San Francisco",
    "state": "CA",
    "postal_code": 94118,
    "latitude": 37.786754,
    "longitude": -122.450476,
    "phone_number": 14152218506
  },
  {
    "business_id": 66,
    "name": "STARBUCKS",
    "address": "1800 IRVING ST",
    "city": "San Francisco",
    "state": "CA",
    "postal_code": 94122,
    "latitude": 37.763578,
    "longitude": -122.477461,
    "phone_number": 14152427970
  },
  {
    "business_id": 1085,
    "name": "STARBUCKS",
    "address": "333 MARKET ST",
    "city": "San Francisco",
    "state": "CA",
    "postal_code": 94105,
    "latitude": 37.792037,
    "longitude": -122.397852,
    "phone_number": 14152410256
  },
  {
    "business_id": 1103,
    "name": "STARBUCKS",
    "address": "4094 18TH ST",
    "city": "San Francisco",
    "state": "CA",
    "postal_code": 94114,
    "latitude": 37.760938,
    "longitude": -122.434692,
    "phone_number": 14152410256
  },
  {
    "business_id": 1116,
    "name": "STARBUCKS",
    "address": "1899 UNION ST",
    "city": "San Francisco",
    "state": "CA",
    "postal_code": 94123,
    "latitude": 37.797713,
    "longitude": -122.430336,
    "phone_number": 14159214049
  },
  {
    "business_id": 1122,
    "name": "STARBUCKS",
    "address": "2132 CHESTNUT ST",
    "city": "San Francisco",
    "state": "CA",
    "postal_code": 94123,
    "latitude": 37.800547,
    "longitude": -122.438494,
    "phone_number": 14156736781
  },
  {
    "business_id": 1127,
    "name": "STARBUCKS",
    "address": "555 CALIFORNIA ST",
    "city": "San Francisco",
    "state": "CA",
    "postal_code": 94104,
    "latitude": 37.792773,
    "longitude": -122.403567,
    "phone_number": 14159551940
  },
  {
    "business_id": 1265,
    "name": "STARBUCKS",
    "address": "744 IRVING ST",
    "city": "San Francisco",
    "state": "CA",
    "postal_code": 94122,
    "latitude": 37.764088,
    "longitude": -122.465981,
    "phone_number": 14158540888
  },
  {
    "business_id": 1269,
    "name": "STARBUCKS",
    "address": "201 SPEAR ST",
    "city": "San Francisco",
    "state": "CA",
    "postal_code": 94105,
    "latitude": 37.790944,
    "longitude": -122.392051,
    "phone_number": 14157716646
  },
  {
    "business_id": 1359,
    "name": "STARBUCKS",
    "address": "1750 DIVISADERO ST",
    "city": "San Francisco",
    "state": "CA",
    "postal_code": 94115,
    "latitude": 37.785907,
    "longitude": -122.439957,
    "phone_number": 14153463713
  },
  {
    "business_id": 1368,
    "name": "STARBUCKS",
    "address": "701 BATTERY ST",
    "city": "San Francisco",
    "state": "CA",
    "postal_code": 94111,
    "latitude": 37.797754,
    "longitude": -122.400925,
    "phone_number": 14152410256
  },
  {
    "business_id": 1413,
    "name": "STARBUCKS",
    "address": "5455 GEARY BLVD",
    "city": "San Francisco",
    "state": "CA",
    "postal_code": 94121,
    "latitude": 37.780305,
    "longitude": -122.477825,
    "phone_number": 14153868813
  },
  {
    "business_id": 1444,
    "name": "STARBUCKS",
    "address": "1560 VAN NESS AVE",
    "city": "San Francisco",
    "state": "CA",
    "postal_code": 94111,
    "latitude": 37.790086,
    "longitude": -122.422167,
    "phone_number": ""
  },
  {
    "business_id": 1486,
    "name": "STARBUCKS",
    "address": "675 PORTOLA DR",
    "city": "San Francisco",
    "state": "CA",
    "postal_code": 94127,
    "latitude": 37.744736,
    "longitude": -122.452666,
    "phone_number": 14156829477
  },
  {
    "business_id": 1505,
    "name": "STARBUCKS",
    "address": "359 GRANT AVE",
    "city": "San Francisco",
    "state": "CA",
    "postal_code": 94108,
    "latitude": 37.790376,
    "longitude": -122.405544,
    "phone_number": 14153922365
  },
  {
    "business_id": 1520,
    "name": "STARBUCKS",
    "address": "199 FREMONT ST",
    "city": "San Francisco",
    "state": "CA",
    "postal_code": 94103,
    "latitude": 37.789314,
    "longitude": -122.395192,
    "phone_number": 14156150458
  },
  {
    "business_id": 1529,
    "name": "STARBUCKS",
    "address": "490 BRANNAN ST",
    "city": "San Francisco",
    "state": "CA",
    "postal_code": 94107,
    "latitude": 37.778694,
    "longitude": -122.396139,
    "phone_number": 14152410256
  },
  {
    "business_id": 1614,
    "name": "STARBUCKS",
    "address": "455 MARKET ST",
    "city": "San Francisco",
    "state": "CA",
    "postal_code": 94105,
    "latitude": 37.791227,
    "longitude": -122.398872,
    "phone_number": 14152410256
  },
  {
    "business_id": 1615,
    "name": "STARBUCKS",
    "address": "27 DRUMM ST",
    "city": "San Francisco",
    "state": "CA",
    "postal_code": 94111,
    "latitude": 37.794184,
    "longitude": -122.396524,
    "phone_number": 14152410256
  },
  {
    "business_id": 1652,
    "name": "STARBUCKS",
    "address": "201 03RD ST",
    "city": "San Francisco",
    "state": "CA",
    "postal_code": 94105,
    "latitude": 37.785037,
    "longitude": -122.400432,
    "phone_number": 14152410256
  },
  {
    "business_id": 1866,
    "name": "STARBUCKS",
    "address": "343 SANSOME ST",
    "city": "San Francisco",
    "state": "CA",
    "postal_code": 94104,
    "latitude": 37.793693,
    "longitude": -122.401194,
    "phone_number": 14159898759
  },
  {
    "business_id": 1927,
    "name": "STARBUCKS",
    "address": "1799 FULTON ST",
    "city": "San Francisco",
    "state": "CA",
    "postal_code": 94117,
    "latitude": 37.775793,
    "longitude": -122.446227,
    "phone_number": 14159211183
  },
  {
    "business_id": 1939,
    "name": "STARBUCKS",
    "address": "74 NEW MONTGOMERY ST",
    "city": "San Francisco",
    "state": "CA",
    "postal_code": 94105,
    "latitude": 37.787838,
    "longitude": -122.400998,
    "phone_number": 14152840651
  },
  {
    "business_id": 2072,
    "name": "STARBUCKS",
    "address": "2163 POLK ST",
    "city": "San Francisco",
    "state": "CA",
    "postal_code": 94109,
    "latitude": 37.796527,
    "longitude": -122.421953,
    "phone_number": 14159211351
  },
  {
    "business_id": 2136,
    "name": "STARBUCKS",
    "address": "100 WEST PORTAL AVE",
    "city": "San Francisco",
    "state": "CA",
    "postal_code": 94122,
    "latitude": 37.739514,
    "longitude": -122.46733,
    "phone_number": 14156648370
  },
  {
    "business_id": 2218,
    "name": "STARBUCKS",
    "address": "99 JACKSON ST",
    "city": "San Francisco",
    "state": "CA",
    "postal_code": 94111,
    "latitude": 37.79703,
    "longitude": -122.398284,
    "phone_number": 14158540888
  },
  {
    "business_id": 2244,
    "name": "STARBUCKS",
    "address": "295 CALIFORNIA ST",
    "city": "San Francisco",
    "state": "CA",
    "postal_code": 94111,
    "latitude": 37.793225,
    "longitude": -122.399899,
    "phone_number": 14159862349
  },
  {
    "business_id": 2245,
    "name": "STARBUCKS",
    "address": "0264 KEARNY ST",
    "city": "San Francisco",
    "state": "CA",
    "postal_code": 94108,
    "latitude": 37.790498,
    "longitude": -122.403896,
    "phone_number": 14157881363
  },
  {
    "business_id": 2299,
    "name": "STARBUCKS",
    "address": "1401 VAN NESS AVE",
    "city": "San Francisco",
    "state": "CA",
    "postal_code": 94109,
    "latitude": 37.788476,
    "longitude": -122.422099,
    "phone_number": 14159214004
  },
  {
    "business_id": 2472,
    "name": "STARBUCKS",
    "address": "1501 FILLMORE ST",
    "city": "San Francisco",
    "state": "CA",
    "postal_code": 94115,
    "latitude": 37.783505,
    "longitude": -122.432784,
    "phone_number": 14152410256
  },
  {
    "business_id": 2578,
    "name": "STARBUCKS",
    "address": "1255 BATTERY ST",
    "city": "San Francisco",
    "state": "CA",
    "postal_code": 94111,
    "latitude": 37.802545,
    "longitude": -122.401864,
    "phone_number": 14152410256
  },
  {
    "business_id": 2592,
    "name": "STARBUCKS",
    "address": "201 POWELL ST",
    "city": "San Francisco",
    "state": "CA",
    "postal_code": 94102,
    "latitude": 37.786804,
    "longitude": -122.408135,
    "phone_number": 14152410256
  },
  {
    "business_id": 2756,
    "name": "STARBUCKS",
    "address": "3595 CALIFORNIA ST",
    "city": "San Francisco",
    "state": "CA",
    "postal_code": 94118,
    "latitude": 37.786404,
    "longitude": -122.453207,
    "phone_number": 14153872249
  },
  {
    "business_id": 2768,
    "name": "STARBUCKS",
    "address": "442 GEARY ST",
    "city": "San Francisco",
    "state": "CA",
    "postal_code": 94102,
    "latitude": 37.787131,
    "longitude": -122.410585,
    "phone_number": 14159229086
  },
  {
    "business_id": 2777,
    "name": "STARBUCKS",
    "address": "052 CALIFORNIA ST",
    "city": "San Francisco",
    "state": "CA",
    "postal_code": 94111,
    "latitude": 37.793632,
    "longitude": -122.397023,
    "phone_number": 14153988630
  },
  {
    "business_id": 2799,
    "name": "STARBUCKS",
    "address": "780 MARKET ST",
    "city": "San Francisco",
    "state": "CA",
    "postal_code": 94102,
    "latitude": 37.786124,
    "longitude": -122.40542,
    "phone_number": 14152410256
  },
  {
    "business_id": 2805,
    "name": "STARBUCKS",
    "address": "390 STOCKTON ST",
    "city": "San Francisco",
    "state": "CA",
    "postal_code": 94108,
    "latitude": 37.789267,
    "longitude": -122.406877,
    "phone_number": 14152410256
  },
  {
    "business_id": 2810,
    "name": "STARBUCKS",
    "address": "222 MASON ST",
    "city": "San Francisco",
    "state": "CA",
    "postal_code": 94102,
    "latitude": 37.785648,
    "longitude": -122.409497,
    "phone_number": 14152410254
  },
  {
    "business_id": 2818,
    "name": "STARBUCKS",
    "address": "36 02ND ST",
    "city": "San Francisco",
    "state": "CA",
    "postal_code": 94105,
    "latitude": 37.788727,
    "longitude": -122.400798,
    "phone_number": 14152410256
  },
  {
    "business_id": 2884,
    "name": "STARBUCKS",
    "address": "44 MONTGOMERY ST",
    "city": "San Francisco",
    "state": "CA",
    "postal_code": 94104,
    "latitude": 37.789705,
    "longitude": -122.402056,
    "phone_number": 14152410256
  },
  {
    "business_id": 3503,
    "name": "STARBUCKS",
    "address": "565 CLAY ST",
    "city": "San Francisco",
    "state": "CA",
    "postal_code": 94111,
    "latitude": 37.794703,
    "longitude": -122.402687,
    "phone_number": 14158340578
  },
  {
    "business_id": 4480,
    "name": "STARBUCKS",
    "address": "3995 24TH ST",
    "city": "San Francisco",
    "state": "CA",
    "postal_code": 94114,
    "latitude": 37.751413,
    "longitude": -122.431629,
    "phone_number": 14158261118
  },
  {
    "business_id": 4548,
    "name": "STARBUCKS",
    "address": "2801 JONES ST #111",
    "city": "San Francisco",
    "state": "CA",
    "postal_code": 94133,
    "latitude": 37.807048,
    "longitude": -122.417704,
    "phone_number": 14152410256
  },
  {
    "business_id": 4636,
    "name": "STARBUCKS",
    "address": "3251 20TH AVE",
    "city": "San Francisco",
    "state": "CA",
    "postal_code": 94132,
    "latitude": 37.728497,
    "longitude": -122.475639,
    "phone_number": 14156654956
  },
  {
    "business_id": 4656,
    "name": "STARBUCKS",
    "address": "120 04TH ST",
    "city": "San Francisco",
    "state": "CA",
    "postal_code": 94103,
    "latitude": 37.784247,
    "longitude": -122.403989,
    "phone_number": 14152840579
  },
  {
    "business_id": 4819,
    "name": "STARBUCKS",
    "address": "398 MARKET ST",
    "city": "San Francisco",
    "state": "CA",
    "postal_code": 94111,
    "latitude": 37.791742,
    "longitude": -122.398373,
    "phone_number": 14152410256
  },
  {
    "business_id": 4841,
    "name": "STARBUCKS",
    "address": "350 PARNASSUS AVE",
    "city": "San Francisco",
    "state": "CA",
    "postal_code": 94117,
    "latitude": 37.764027,
    "longitude": -122.456159,
    "phone_number": 14152410256
  },
  {
    "business_id": 5011,
    "name": "STARBUCKS",
    "address": "1231 MARKET ST",
    "city": "San Francisco",
    "state": "CA",
    "postal_code": 94103,
    "latitude": 37.778357,
    "longitude": -122.415182,
    "phone_number": 14155221438
  },
  {
    "business_id": 6636,
    "name": "STARBUCKS",
    "address": "1390 MARKET ST",
    "city": "San Francisco",
    "state": "CA",
    "postal_code": 94102,
    "latitude": 37.777053,
    "longitude": -122.416939,
    "phone_number": 14152410256
  },
  {
    "business_id": 9155,
    "name": "STARBUCKS",
    "address": "350 RHODE ISLAND",
    "city": "San Francisco",
    "state": "CA",
    "postal_code": 94103,
    "latitude": 37.765427,
    "longitude": -122.402645,
    "phone_number": 14152410256
  },
  {
    "business_id": 11289,
    "name": "STARBUCKS",
    "address": "280 KING STREET",
    "city": "San Francisco",
    "state": "CA",
    "postal_code": 94107,
    "latitude": 37.776805,
    "longitude": -122.393789,
    "phone_number": 14152410252
  },
  {
    "business_id": 16286,
    "name": "STARBUCKS",
    "address": "425 BATTERY ST",
    "city": "San Francisco",
    "state": "CA",
    "postal_code": 94111,
    "latitude": 37.795366,
    "longitude": -122.400435,
    "phone_number": 14154459030
  },
  {
    "business_id": 18399,
    "name": "STARBUCKS",
    "address": "3735 BUCHANAN ST",
    "city": "San Francisco",
    "state": "CA",
    "postal_code": 94123,
    "latitude": 37.804444,
    "longitude": -122.433625,
    "phone_number": 14156064908
  },
  {
    "business_id": 19403,
    "name": "STARBUCKS",
    "address": "499 BAY ST",
    "city": "San Francisco",
    "state": "CA",
    "postal_code": 94133,
    "latitude": 37.805493,
    "longitude": -122.414407,
    "phone_number": 14154091847
  },
  {
    "business_id": 19416,
    "name": "STARBUCKS",
    "address": "865 MARKET ST C26",
    "city": "San Francisco",
    "state": "CA",
    "postal_code": 94103,
    "latitude": 37.784317,
    "longitude": -122.407563,
    "phone_number": 14156064908
  },
  {
    "business_id": 19417,
    "name": "STARBUCKS",
    "address": "5 03RD ST",
    "city": "San Francisco",
    "state": "CA",
    "postal_code": 94103,
    "latitude": 37.787569,
    "longitude": -122.403349,
    "phone_number": 14156064908
  },
  {
    "business_id": 19418,
    "name": "STARBUCKS",
    "address": "675 TOWNSEND ST",
    "city": "San Francisco",
    "state": "CA",
    "postal_code": 94103,
    "latitude": 37.770517,
    "longitude": -122.403221,
    "phone_number": 14156064908
  },
  {
    "business_id": 35771,
    "name": "STARBUCKS",
    "address": "462 POWELL ST",
    "city": "San Francisco",
    "state": "CA",
    "postal_code": 94102,
    "latitude": 37.788918,
    "longitude": -122.408507,
    "phone_number": ""
  },
  {
    "business_id": 35790,
    "name": "STARBUCKS",
    "address": "1700 OWENS STREET",
    "city": "San Francisco",
    "state": "CA",
    "postal_code": 94107,
    "latitude": 37.767692,
    "longitude": -122.393977,
    "phone_number": 14156064908
  },
  {
    "business_id": 68739,
    "name": "STARBUCKS",
    "address": "PIER 1 THE EMBARCADERO",
    "city": "San Francisco",
    "state": "CA",
    "postal_code": 94111,
    "latitude": 37.794551,
    "longitude": -122.39319,
    "phone_number": ""
  },
  {
    "business_id": 70416,
    "name": "STARBUCKS",
    "address": "100 01ST ST",
    "city": "San Francisco",
    "state": "CA",
    "postal_code": 94105,
    "latitude": "",
    "longitude": "",
    "phone_number": ""
  },
  {
    "business_id": 78724,
    "name": "STARBUCKS",
    "address": "685 BEACH ST",
    "city": "San Francisco",
    "state": "CA",
    "postal_code": 94109,
    "latitude": "",
    "longitude": "",
    "phone_number": 14152335105
  },
  {
    "business_id": 80037,
    "name": "STARBUCKS",
    "address": "100 MONTGOMERY ST",
    "city": "San Francisco",
    "state": "CA",
    "postal_code": 94104,
    "latitude": "",
    "longitude": "",
    "phone_number": 14152335105
  },
  {
    "business_id": 80044,
    "name": "STARBUCKS",
    "address": "564 MARKET ST",
    "city": "San Francisco",
    "state": "CA",
    "postal_code": 94104,
    "latitude": "",
    "longitude": "",
    "phone_number": 14152335105
  },
  {
    "business_id": 82653,
    "name": "STARBUCKS",
    "address": "1 MARKET ST",
    "city": "San Francisco",
    "state": "CA",
    "postal_code": 94105,
    "latitude": "",
    "longitude": "",
    "phone_number": 14154471575
  },
  {
    "business_id": 84715,
    "name": "STARBUCKS",
    "address": "1 MARKET ST",
    "city": "San Francisco",
    "state": "CA",
    "postal_code": 94105,
    "latitude": "",
    "longitude": "",
    "phone_number": 14154471575
  },
  {
    "business_id": 84716,
    "name": "STARBUCKS",
    "address": "1375 03RD ST",
    "city": "San Francisco",
    "state": "CA",
    "postal_code": 94158,
    "latitude": "",
    "longitude": "",
    "phone_number": 14154471575
  },
  {
    "business_id": 88792,
    "name": "STARBUCKS",
    "address": "3801 03RD ST",
    "city": "San Francisco",
    "state": "CA",
    "postal_code": 94124,
    "latitude": "",
    "longitude": "",
    "phone_number": 14153625460
  },
  {
    "business_id": 89633,
    "name": "STARBUCKS",
    "address": "2675 GEARY BLVD E104",
    "city": "San Francisco",
    "state": "CA",
    "postal_code": 94118,
    "latitude": "",
    "longitude": "",
    "phone_number": 14153184994
  },
  {
    "business_id": 91817,
    "name": "STARBUCKS",
    "address": "580 CALIFORNIA ST SUITE 150",
    "city": "San Francisco",
    "state": "CA",
    "postal_code": 94104,
    "latitude": "",
    "longitude": "",
    "phone_number": ""
  },
  {
    "business_id": 93240,
    "name": "STARBUCKS",
    "address": "201 MISSION ST.",
    "city": "San Francisco",
    "state": "CA",
    "postal_code": 94105,
    "latitude": "",
    "longitude": "",
    "phone_number": 14159181743
  },
  {
    "business_id": 95496,
    "name": "STARBUCKS",
    "address": "66 KEARNY ST",
    "city": "San Francisco",
    "state": "CA",
    "postal_code": "",
    "latitude": "",
    "longitude": "",
    "phone_number": ""
  },
  {
    "business_id": 96052,
    "name": "STARBUCKS",
    "address": "49 JEFFERSON ST P",
    "city": "San Francisco",
    "state": "CA",
    "postal_code": 94133,
    "latitude": "",
    "longitude": "",
    "phone_number": 14153188705
  },
  {
    "business_id": 2495,
    "name": "STARBUCKS",
    "address": "2222 FILLMORE",
    "city": "San Francisco",
    "state": "CA",
    "postal_code": 94115,
    "latitude": 37.790157,
    "longitude": -122.434037,
    "phone_number": 14156733171
  },
  {
    "business_id": 2871,
    "name": "STARBUCKS",
    "address": "2727 MARIPOSA ST",
    "city": "San Francisco",
    "state": "CA",
    "postal_code": 94110,
    "latitude": 37.762963,
    "longitude": -122.410709,
    "phone_number": 14155522649
  },
  {
    "business_id": 198,
    "name": "SUBWAY",
    "address": "3801 03RD ST 310",
    "city": "San Francisco",
    "state": "CA",
    "postal_code": 94124,
    "latitude": 37.741829,
    "longitude": -122.388098,
    "phone_number": 14158244721
  },
  {
    "business_id": 300,
    "name": "SUBWAY",
    "address": "2001 VAN NESS AVE",
    "city": "San Francisco",
    "state": "CA",
    "postal_code": 94109,
    "latitude": 37.794134,
    "longitude": -122.423234,
    "phone_number": 14157769929
  },
  {
    "business_id": 4681,
    "name": "SUBWAY",
    "address": "2516 NORIEGA ST",
    "city": "San Francisco",
    "state": "CA",
    "postal_code": 94122,
    "latitude": 37.753638,
    "longitude": -122.490712,
    "phone_number": 14157598311
  },
  {
    "business_id": 60029,
    "name": "SUBWAY",
    "address": "804 BRYANT ST",
    "city": "San Francisco",
    "state": "CA",
    "postal_code": 94103,
    "latitude": 37.775853,
    "longitude": -122.402809,
    "phone_number": 14158646557
  },
  {
    "business_id": 65283,
    "name": "SUBWAY",
    "address": "147 MASON ST",
    "city": "San Francisco",
    "state": "CA",
    "postal_code": 94102,
    "latitude": 37.784884,
    "longitude": -122.409425,
    "phone_number": 14152796545
  },
  {
    "business_id": 78645,
    "name": "SUBWAY",
    "address": "940 MARKET ST",
    "city": "San Francisco",
    "state": "CA",
    "postal_code": 94102,
    "latitude": "",
    "longitude": "",
    "phone_number": 14152796545
  },
  {
    "business_id": 93431,
    "name": "SUBWAY",
    "address": "423 BUSH ST",
    "city": "San Francisco",
    "state": "CA",
    "postal_code": 94108,
    "latitude": "",
    "longitude": "",
    "phone_number": ""
  },
  {
    "business_id": 65580,
    "name": "SUBWAY",
    "address": "99 DRUMM ST",
    "city": "San Francisco",
    "state": "CA",
    "postal_code": 94111,
    "latitude": 37.794576,
    "longitude": -122.396643,
    "phone_number": 14159865510
  },
  {
    "business_id": 65826,
    "name": "SUBWAY",
    "address": "701 SUTTER ST",
    "city": "San Francisco",
    "state": "CA",
    "postal_code": 94109,
    "latitude": 37.788764,
    "longitude": -122.412027,
    "phone_number": 14153451300
  },
  {
    "business_id": 9289,
    "name": "SUBWAY",
    "address": "653 KEARNY ST",
    "city": "San Francisco",
    "state": "CA",
    "postal_code": 94108,
    "latitude": 37.794305,
    "longitude": -122.404784,
    "phone_number": 14156930333
  },
  {
    "business_id": 93422,
    "name": "SUBWAY",
    "address": "408 MONTGOMERY ST",
    "city": "San Francisco",
    "state": "CA",
    "postal_code": 94104,
    "latitude": "",
    "longitude": "",
    "phone_number": ""
  },
  {
    "business_id": 14071,
    "name": "SUBWAY",
    "address": "700 04TH ST",
    "city": "San Francisco",
    "state": "CA",
    "postal_code": 94107,
    "latitude": 37.776858,
    "longitude": -122.394729,
    "phone_number": 14152911925
  },
  {
    "business_id": 4804,
    "name": "SUBWAY",
    "address": "2599 SAN BRUNO AVE",
    "city": "San Francisco",
    "state": "CA",
    "postal_code": 94134,
    "latitude": 37.728933,
    "longitude": -122.40413,
    "phone_number": 14155440880
  },
  {
    "business_id": 35786,
    "name": "SUBWAY",
    "address": "750 FONT BLVD",
    "city": "San Francisco",
    "state": "CA",
    "postal_code": 94132,
    "latitude": 37.723054,
    "longitude": -122.483612,
    "phone_number": 14154053499
  },
  {
    "business_id": 35469,
    "name": "SUBWAY",
    "address": "1099 MISSION ST",
    "city": "San Francisco",
    "state": "CA",
    "postal_code": "",
    "latitude": 37.779466,
    "longitude": -122.410903,
    "phone_number": 14152419033
  },
  {
    "business_id": 59021,
    "name": "SUBWAY",
    "address": "4841 MISSION ST",
    "city": "San Francisco",
    "state": "CA",
    "postal_code": 94112,
    "latitude": 37.720912,
    "longitude": -122.437603,
    "phone_number": 14158109557
  },
  {
    "business_id": 93489,
    "name": "SUBWAY",
    "address": "177 TOWNSEND ST.",
    "city": "San Francisco",
    "state": "CA",
    "postal_code": 94107,
    "latitude": "",
    "longitude": "",
    "phone_number": 14157778567
  },
  {
    "business_id": 93072,
    "name": "SUBWAY",
    "address": "170 O'FARRELL ST #428",
    "city": "San Francisco",
    "state": "CA",
    "postal_code": 94102,
    "latitude": "",
    "longitude": "",
    "phone_number": 14157991964
  },
  {
    "business_id": 1111,
    "name": "SUBWAY",
    "address": "753 POLK ST",
    "city": "San Francisco",
    "state": "CA",
    "postal_code": 94109,
    "latitude": 37.783713,
    "longitude": -122.419357,
    "phone_number": 14159281055
  },
  {
    "business_id": 33914,
    "name": "SUBWAY",
    "address": "3911 ALEMANY BL.",
    "city": "San Francisco",
    "state": "CA",
    "postal_code": 94132,
    "latitude": 37.711185,
    "longitude": -122.46779,
    "phone_number": 14155440880
  },
  {
    "business_id": 33198,
    "name": "SUBWAY",
    "address": "333 JEFFERSON ST #125",
    "city": "San Francisco",
    "state": "CA",
    "postal_code": 94133,
    "latitude": 37.807923,
    "longitude": -122.417887,
    "phone_number": 14153469100
  },
  {
    "business_id": 66934,
    "name": "SUBWAY",
    "address": "5 EMBARCADERO CENTER",
    "city": "San Francisco",
    "state": "CA",
    "postal_code": 94111,
    "latitude": 37.794168,
    "longitude": -122.396457,
    "phone_number": 14159864622
  },
  {
    "business_id": 68761,
    "name": "SUBWAY",
    "address": "168 02ND ST",
    "city": "San Francisco",
    "state": "CA",
    "postal_code": 94105,
    "latitude": "",
    "longitude": "",
    "phone_number": ""
  },
  {
    "business_id": 66363,
    "name": "SUBWAY",
    "address": "187 06TH ST",
    "city": "San Francisco",
    "state": "CA",
    "postal_code": 94103,
    "latitude": 37.774722,
    "longitude": -122.406761,
    "phone_number": 14152595722
  },
  {
    "business_id": 1768,
    "name": "SUBWAY",
    "address": "1199 SUTTER ST",
    "city": "San Francisco",
    "state": "CA",
    "postal_code": 94109,
    "latitude": 37.787783,
    "longitude": -122.419737,
    "phone_number": 14153466756
  },
  {
    "business_id": 19002,
    "name": "SUBWAY",
    "address": "5650 GEARY BLVD",
    "city": "San Francisco",
    "state": "CA",
    "postal_code": 94121,
    "latitude": 37.780421,
    "longitude": -122.479933,
    "phone_number": 14153868223
  },
  {
    "business_id": 63619,
    "name": "SUBWAY",
    "address": "77 VAN NESS AVE #100",
    "city": "San Francisco",
    "state": "CA",
    "postal_code": 94102,
    "latitude": 37.776133,
    "longitude": -122.419484,
    "phone_number": 14159891866
  },
  {
    "business_id": 67510,
    "name": "SUBWAY",
    "address": "215 FREMONT ST",
    "city": "San Francisco",
    "state": "CA",
    "postal_code": 94105,
    "latitude": 37.788864,
    "longitude": -122.394613,
    "phone_number": 14159891866
  },
  {
    "business_id": 82719,
    "name": "SUBWAY",
    "address": "2675 GEARY BLVD E103",
    "city": "San Francisco",
    "state": "CA",
    "postal_code": 94108,
    "latitude": "",
    "longitude": "",
    "phone_number": 14153856307
  },
  {
    "business_id": 71823,
    "name": "SUBWAY",
    "address": "200 PINE ST #140",
    "city": "San Francisco",
    "state": "CA",
    "postal_code": 94104,
    "latitude": 37.792237,
    "longitude": -122.400124,
    "phone_number": 14152386388
  },
  {
    "business_id": 65674,
    "name": "SUBWAY",
    "address": "30 02ND ST",
    "city": "San Francisco",
    "state": "CA",
    "postal_code": 94105,
    "latitude": 37.788828,
    "longitude": -122.400971,
    "phone_number": 14159891866
  },
  {
    "business_id": 76503,
    "name": "SUBWAY",
    "address": "388 MARKET ST #102",
    "city": "San Francisco",
    "state": "CA",
    "postal_code": 94111,
    "latitude": "",
    "longitude": "",
    "phone_number": 14159891866
  },
  {
    "business_id": 81861,
    "name": "SUBWAY",
    "address": "795 A FOLSOM ST",
    "city": "San Francisco",
    "state": "CA",
    "postal_code": 94107,
    "latitude": "",
    "longitude": "",
    "phone_number": 14157773657
  },
  {
    "business_id": 21407,
    "name": "SUBWAY",
    "address": "11 03RD ST",
    "city": "San Francisco",
    "state": "CA",
    "postal_code": 94103,
    "latitude": 37.787451,
    "longitude": -122.403337,
    "phone_number": 14155958051
  },
  {
    "business_id": 94334,
    "name": "SUBWAY",
    "address": "160 BROADWAY ST",
    "city": "San Francisco",
    "state": "CA",
    "postal_code": 94111,
    "latitude": "",
    "longitude": "",
    "phone_number": 14158861913
  },
  {
    "business_id": 94337,
    "name": "SUBWAY",
    "address": "425 D BATTERY ST",
    "city": "San Francisco",
    "state": "CA",
    "postal_code": 94111,
    "latitude": "",
    "longitude": "",
    "phone_number": 14153991549
  },
  {
    "business_id": 81166,
    "name": "SUBWAY",
    "address": "1501 B SLOAT BLVD",
    "city": "San Francisco",
    "state": "CA",
    "postal_code": 94123,
    "latitude": "",
    "longitude": "",
    "phone_number": 14159891866
  },
  {
    "business_id": 92075,
    "name": "SUBWAY",
    "address": "1400 MISSION ST., SUITE #131",
    "city": "San Francisco",
    "state": "CA",
    "postal_code": 94103,
    "latitude": "",
    "longitude": "",
    "phone_number": 14159891866
  },
  {
    "business_id": 28209,
    "name": "SUBWAY",
    "address": "2375 MARKET ST",
    "city": "San Francisco",
    "state": "CA",
    "postal_code": 94114,
    "latitude": 37.762927,
    "longitude": -122.434608,
    "phone_number": 14155958051
  },
  {
    "business_id": 631,
    "name": "SUBWAY",
    "address": "1500 FILLMORE ST",
    "city": "San Francisco",
    "state": "CA",
    "postal_code": 94115,
    "latitude": 37.78332,
    "longitude": -122.432647,
    "phone_number": 14157715583
  },
  {
    "business_id": 70993,
    "name": "SUBWAY",
    "address": "595 BUCKINGHAM WAY SUIT 587",
    "city": "San Francisco",
    "state": "CA",
    "postal_code": 94132,
    "latitude": "",
    "longitude": "",
    "phone_number": 14159891866
  },
  {
    "business_id": 88568,
    "name": "SUBWAY",
    "address": "350 BAY ST UNIT 1",
    "city": "San Francisco",
    "state": "CA",
    "postal_code": 94133,
    "latitude": "",
    "longitude": "",
    "phone_number": ""
  }
]